NAPS_ID,Station_Name,City,Province/Territory_EN,Province_Code,Latitude,Longitude,Status,Start_Date,End_Date
10101,DUCKWORTH & ORDINANCE,ST. JOHN'S,NEWFOUNDLAND AND LABRADOR,NL,47.56806,-52.70222,0,1975-02-07,1988-07-26
10102,WATER STREET POST OFFICE,ST. JOHN'S,NEWFOUNDLAND AND LABRADOR,NL,47.56038,-52.71147,1,1988-07-31,
10301,CREDIT UNION,CORNER BROOK,NEWFOUNDLAND AND LABRADOR,NL,48.949479,-57.945387,0,2001-06-30,2014-05-22
10401,MOUNT PEARL,MOUNT PEARL,NEWFOUNDLAND AND LABRADOR,NL,47.50513,-52.79476,1,2002-05-04,
10501,ABITIBI SITE,GRAND FALLS - WINDSOR,NEWFOUNDLAND AND LABRADOR,NL,48.92696,-55.65966,1,2004-05-17,
10601,GOOSE BAY,HAPPY VALLEY - GOOSE BAY,NEWFOUNDLAND AND LABRADOR,NL,53.306,-60.36314,1,2005-03-09,
10602,MACPHERSON AVENUE,CORNER BROOK,NEWFOUNDLAND AND LABRADOR,NL,48.95224,-57.92207,1,2009-07-14,
10701,FERROLE POINT,FERROLE POINT,NEWFOUNDLAND AND LABRADOR,NL,51.021995,-57.095567,0,2004-12-31,2009-10-31
10801,PORT AU CHOIX,PORT AUX CHOIX,NEWFOUNDLAND AND LABRADOR,NL,50.7123,-57.36421,1,2010-06-15,
10901,MARYSTOWN_BURIN,BURIN,NEWFOUNDLAND AND LABRADOR,NL,47.09899,-55.19852,1,2011-10-23,
11001,LABRADOR CITY - SMOKEY MOUNTAIN,LABRADOR CITY,NEWFOUNDLAND AND LABRADOR,NL,52.9518,-66.9156,0,2014-01-01,2015-12-31
11002,FIREHALL-LABRADORCITY2,LABRADOR CITY,NEWFOUNDLAND AND LABRADOR,NL,52.945487,-66.910306,1,2016-01-01,
20101,CHARLOTTETOWN - 56 FITZROY ST.,CHARLOTTETOWN,PRINCE EDWARD ISLAND,PE,46.23543,-63.13078,0,1974-01-03,1997-12-31
20104,CHARLOTTETOWN - 3 BRIGHTON RD.,CHARLOTTETOWN,PRINCE EDWARD ISLAND,PE,46.233,-63.13667,1,2014-01-01,
20201,NORTH CAPE - ATLANTIC WIND TEST SITE,NORTH CAPE,PRINCE EDWARD ISLAND,PE,47.055,-63.99722,0,1992-09-17,1997-12-31
20301,WELLINGTON - 40 HACKMATACK RD.,WELLINGTON,PRINCE EDWARD ISLAND,PE,46.47843,-63.98763,1,2014-01-01,
20401,SOUTHAMPTON - 2580 CARDIGAN RD.,SOUTHAMPTON,PRINCE EDWARD ISLAND,PE,46.38635,-62.58272,1,2014-01-01,
30101,HALIFAX - DALTECH,HALIFAX,NOVA SCOTIA,NS,44.64202,-63.57362,0,1974-01-01,2002-08-06
30113,HALIFAX - JOHNSTON BUILDING,HALIFAX,NOVA SCOTIA,NS,44.64711,-63.57366,1,2006-04-13,
30114,HALIFAX - MT. ST. VINCENT UNIVERSITY,HALIFAX,NOVA SCOTIA,NS,44.67111,-63.64389,0,1974-01-01,1985-12-31
30115,DARTMOUTH - CFB SHEARWATER,DARTMOUTH,NOVA SCOTIA,NS,44.62611,-63.51944,0,1974-01-01,1998-12-31
30116,HALIFAX - CITY HALL,HALIFAX,NOVA SCOTIA,NS,44.6492,-63.57507,0,1974-09-26,1985-12-31
30117,HALIFAX - BEDFORD ROW POST OFFICE,HALIFAX,NOVA SCOTIA,NS,44.64732,-63.57205,0,1986-08-01,1990-11-15
30118,HALIFAX - VOGUE BUILDING,HALIFAX,NOVA SCOTIA,NS,44.646425,-63.573383,0,1990-12-03,2018-01-14
30119,DARTMOUTH - HARBOURVIEW SCHOOL,DARTMOUTH,NOVA SCOTIA,NS,44.68113,-63.58973,0,1993-10-10,1995-04-03
30120,DARTMOUTH - LAKE MAJOR,DARTMOUTH,NOVA SCOTIA,NS,44.7198,-63.48076,1,2001-06-18,
30201,PORT HAWKESBURY,PORT HAWKESBURY,NOVA SCOTIA,NS,45.6141612,-61.3623563,1,2003-01-20,
30310,SYDNEY - WELTON ST.,SYDNEY,NOVA SCOTIA,NS,46.14222,-60.17252,0,1974-01-11,2024-10-15
30311,SYDNEY - WHITNEY PIER FIRE STATION,SYDNEY,NOVA SCOTIA,NS,46.16142,-60.18694,0,1974-01-16,2010-12-31
30408,GALCE BAY - SOUTH ST. - 1,GLACE BAY,NOVA SCOTIA,NS,46.18361,-59.93917,0,1978-01-01,1983-08-07
30409,GALCE BAY - SOUTH ST. - 2,GLACE BAY,NOVA SCOTIA,NS,46.18333,-59.9375,0,1985-08-27,1995-12-31
30501,KEJIMKUJIK NATIONAL PARK,KEJIMKUJIK,NOVA SCOTIA,NS,44.433611,-65.205833,0,1985-04-16,2016-12-31
30502,KEJIMKUJIK NATIONAL PARK - B,KEJIMKUJIK,NOVA SCOTIA,NS,44.43244,-65.20264,1,2016-01-01,
30601,FALL RIVER - 123 OAKES RD.,FALL RIVER,NOVA SCOTIA,NS,44.8125,-63.60417,0,1986-01-01,1989-04-14
30701,AYLESFORD MOUNTAIN,AYLESFORD,NOVA SCOTIA,NS,45.07254,-64.84025,1,1991-07-02,
30801,YARMOUTH - DAYTON,YARMOUTH,NOVA SCOTIA,NS,43.83333,-66.08333,0,1994-01-05,2013-12-31
30901,PICTOU,PICTOU,NOVA SCOTIA,NS,45.681744,-62.696575,1,2001-01-01,
31001,SABLE ISLAND,SABLE ISLAND,NOVA SCOTIA,NS,43.932297,-60.009287,0,2003-05-23,2015-04-18
31101,KENTVILLE - AGRI-FOOD CANADA,KENTVILLE,NOVA SCOTIA,NS,45.067284,-64.477425,1,2002-08-16,
31201,GRANTON,GRANTON,NOVA SCOTIA,NS,45.63115,-62.73838,0,,2016-03-25
40103,FREDERICTON - ABERDEEN ST.,FREDERICTON,NEW BRUNSWICK,NB,45.957318,-66.646719,0,1999-04-16,2017-03-30
40104,FREDERICTON - NEEDHAM ST.,FREDERICTON,NEW BRUNSWICK,NB,45.957289,-66.645236,1,2016-08-31,
40201,SAINT JOHN - 110 CHARLOTTE ST.,SAINT JOHN,NEW BRUNSWICK,NB,45.272517,-66.058401,0,1974-01-23,1974-02-06
40202,SAINT JOHN - POST OFFICE,SAINT JOHN,NEW BRUNSWICK,NB,45.27056,-66.0625,0,1974-01-01,1991-10-15
40203,SAINT JOHN - FOREST HILLS,SAINT JOHN,NEW BRUNSWICK,NB,45.308762,-66.008384,1,1980-01-01,
40204,SAINT JOHN - WEST DISTRICT POLICE STATION,SAINT JOHN,NEW BRUNSWICK,NB,45.23474,-66.1376,0,1980-01-01,1983-05-31
40206,SAINT JOHN - CUSTOMS BUILDING,SAINT JOHN,NEW BRUNSWICK,NB,45.269677,-66.06151,0,1991-11-14,2016-03-08
40207,SAINT JOHN - WEST SIDE,SAINT JOHN,NEW BRUNSWICK,NB,45.252898,-66.080065,1,1997-09-16,
40208,SAINT JOHN - CHAMPLAIN HEIGHTS SCHOOL,SAINT JOHN,NEW BRUNSWICK,NB,45.291218,-66.00305,1,2000-07-11,
40209,SAINT JOHN - CASTLE ST.,SAINT JOHN,NEW BRUNSWICK,NB,45.28028,-66.05611,1,2009-01-01,
40302,MONCTON - THANET ST.,MONCTON,NEW BRUNSWICK,NB,46.101578,-64.789661,1,1998-07-17,
40401,HASTINGS TOWER - FUNDY PARK,FUNDY NAT. PARK,NEW BRUNSWICK,NB,45.59222,-64.99444,0,1989-06-09,2015-05-25
40501,POINT LEPREAU - CHARLOTTE COUNTY,POINT LEPREAU,NEW BRUNSWICK,NB,45.073272,-66.449573,0,1986-07-15,2016-10-27
40601,BLISSVILLE - SUNBURY COUNTY,BLISSVILLE - SUNBURY COUNTY,NEW BRUNSWICK,NB,45.605425,-66.559505,0,1987-07-02,2014-04-04
40701,NORTON - KINGS COUNTY,NORTON - KINGS COUNTY,NEW BRUNSWICK,NB,45.64192,-65.70127,0,1989-06-05,2018-01-15
40801,CANTERBURY,DOW SETTLEMENT,NEW BRUNSWICK,NB,45.950069,-67.477738,0,1994-08-01,2014-11-12
40901,ST. ANDREWS - HUNTSMAN MARINE SCIENCES CTR.,ST. ANDREWS,NEW BRUNSWICK,NB,45.086912,-67.074036,1,1995-01-09,
41001,CAMPOBELLO ISLAND,CAMPOBELLO ISLAND,NEW BRUNSWICK,NB,44.87306,-66.95611,0,1995-05-24,2005-09-30
41101,ST. LEONARD - AIRPORT,ST. LEONARD,NEW BRUNSWICK,NB,47.157628,-67.831015,0,2000-05-10,2016-12-23
41201,MIRAMICHI - LOWER NEWCASTLE,MIRAMICHI,NEW BRUNSWICK,NB,47.071087,-65.423534,0,2000-06-01,2018-04-13
41301,BATHURST - HOLY FAMILY CHURCH,BATHURST,NEW BRUNSWICK,NB,47.62889,-65.66333,0,2000-01-01,2002-10-23
41302,BATHURST - ROUGH WATERS DR.,BATHURST,NEW BRUNSWICK,NB,47.609693,-65.633509,1,2005-01-01,
41501,EDMUNDSTON - QUEEN ST.,EDMUNDSTON,NEW BRUNSWICK,NB,47.363195,-68.322302,1,2007-05-18,
41601,MIRAMICHI - GRETNA GREEN DR.,MIRAMICHI,NEW BRUNSWICK,NB,47.025671,-65.520487,1,2020-01-22,
50101,MONTRÉAL - PARC JARRY,MONTRÉAL,QUEBEC,QC,45.53486,-73.63307,0,1974-01-01,1983-11-30
50102,MONTRÉAL - JARDIN BOTANIQUE,MONTRÉAL,QUEBEC,QC,45.56221,-73.571785,0,1974-01-01,2009-01-05
50103,MONTRÉAL - SAINT-JEAN-BAPTISTE,MONTRÉAL,QUEBEC,QC,45.641026,-73.499682,1,1974-01-04,
50104,MONTRÉAL - ONTARIO,MONTRÉAL,QUEBEC,QC,45.52055,-73.563222,0,1974-01-01,2008-09-29
50105,MONTRÉAL - DRUMMOND,MONTRÉAL,QUEBEC,QC,45.497859,-73.573035,0,1974-01-01,2014-12-31
50106,MONTRÉAL - VILLE ST-LAURENT,MONTRÉAL,QUEBEC,QC,45.525,-73.67194,0,1974-02-01,1983-12-31
50107,MONTRÉAL - VILLE LASALLE,MONTRÉAL,QUEBEC,QC,45.46,-73.60556,0,1974-06-04,1980-08-31
50108,LONGUEUIL - BOURASSA,LONGUEUIL,QUEBEC,QC,45.52222,-73.48389,0,1982-01-02,1983-12-31
50109,MONTRÉAL - ÉCHANGEUR DÉCARIE,MONTRÉAL,QUEBEC,QC,45.502648,-73.663913,1,1974-01-01,
50110,MONTRÉAL - PARC-PILON,MONTRÉAL,QUEBEC,QC,45.594576,-73.641535,0,1974-10-23,2013-04-06
50111,LAVAL - DUVERNAY,LAVAL,QUEBEC,QC,45.589722,-73.820833,0,1975-05-01,1981-05-18
50112,LAVAL - PONT VIAU,LAVAL,QUEBEC,QC,45.56,-73.681389,0,1975-09-02,1992-12-31
50113,LAVAL - CHOMEDEY,LAVAL,QUEBEC,QC,45.547463,-73.7483166,1,1976-03-01,
50114,MONTRÉAL - 677 STE-CATHERINE O.,MONTRÉAL,QUEBEC,QC,45.50278,-73.57083,0,1976-01-01,1982-05-31
50115,MONTRÉAL - MAISONNEUVE,MONTRÉAL,QUEBEC,QC,45.501531,-73.574311,0,1977-04-01,2016-01-01
50116,MONTRÉAL - VERDUN,MONTRÉAL,QUEBEC,QC,45.4729,-73.573,0,1978-03-10,2015-03-06
50117,MONTRÉAL - 7405 CHAMPAGNEUR,MONTRÉAL,QUEBEC,QC,45.52749,-73.62646,0,1984-01-04,1993-01-31
50118,MONTRÉAL - 820 ST. GERMAIN,MONTRÉAL,QUEBEC,QC,45.51259,-73.67792,0,1984-01-01,1992-12-21
50119,LONGUEUIL,LONGUEUIL,QUEBEC,QC,45.52207,-73.4881,1,1984-01-01,
50120,MONTRÉAL - ROXBORO,MONTRÉAL,QUEBEC,QC,45.49444,-73.80778,0,1988-01-01,1996-12-31
50121,BROSSARD - PARC OCÉANIE,LONGUEUIL,QUEBEC,QC,45.44298,-73.468631,0,1993-04-05,2016-01-26
50122,BROSSARD - PARC SORBONNE,BROSSARD,QUEBEC,QC,45.448663,-73.480819,1,2016-01-28,
50123,MONTRÉAL - DORVAL,MONTRÉAL,QUEBEC,QC,45.439119,-73.7333,0,1995-01-01,2000-02-03
50124,MONTRÉAL - CHATEAUNEUF-ANJOU,MONTRÉAL,QUEBEC,QC,45.602846,-73.558874,1,1997-01-28,
50125,MONTRÉAL - CENTRE RÉCRÉATIF EDOUARD RIVEST,MONTRÉAL,QUEBEC,QC,45.62866,-73.5003,0,1996-05-27,2009-01-01
50126,MONTRÉAL - SAINTE-ANNE DE BELLEVUE,MONTRÉAL,QUEBEC,QC,45.426542,-73.928929,1,1997-10-08,
50128,MONTRÉAL - AÉROPORT DE MONTRÉAL - 1,MONTRÉAL,QUEBEC,QC,45.468322,-73.741198,1,1998-01-01,
50129,MONTRÉAL - RIVIÈRE-DES-PRAIRIES,MONTRÉAL,QUEBEC,QC,45.651691,-73.573825,1,1998-12-04,
50130,MONTRÉAL - AÉROPORT DE MONTRÉAL - 2,MONTRÉAL,QUEBEC,QC,45.45578,-73.76692,0,1998-10-01,1999-10-22
50131,MONTRÉAL - HOCHELAGA-MAISONNEUVE,MONTRÉAL,QUEBEC,QC,45.539928,-73.540388,1,2001-04-05,
50133,MONTRÉAL - CHENIER,MONTRÉAL,QUEBEC,QC,45.60176,-73.541992,0,2007-12-21,2018-12-31
50134,MONTRÉAL - MOLSON ,MONTRÉAL,QUEBEC,QC,45.54271,-73.57176,1,2008-09-28,
50135,MONTRÉAL-CASERNE 17,MONTRÉAL,QUEBEC,QC,45.5934,-73.63726,1,2013-04-12,
50136,MONTRÉAL - ST-DOMINIQUE,MONTRÉAL,QUEBEC,QC,45.512189,-73.566842,1,2016-01-28,
50137,TERREBONNE - PARC VAILLANT,TERREBONNE,QUEBEC,QC,45.70476,-73.65776,1,2016-11-16,
50138,MONTRÉAL-YORK/ROBERVAL,MONTRÉAL,QUEBEC,QC,45.464611,-73.582583,1,2015-12-31,
50201,GATINEAU - EDDY,GATINEAU,QUEBEC,QC,45.4248,-75.72075,0,1974-01-01,1976-06-04
50203,GATINEAU - GAMELIN,GATINEAU,QUEBEC,QC,45.444167,-75.738889,0,1977-04-01,1996-12-18
50204,GATINEAU - HULL,GATINEAU,QUEBEC,QC,45.435987,-75.723429,1,1997-01-23,
50303,QUÉBEC - LIMOILOU,QUÉBEC,QUEBEC,QC,46.82611,-71.2269,0,1974-03-22,1989-02-28
50304,QUÉBEC - DORCHESTER,QUÉBEC,QUEBEC,QC,46.81618,-71.22926,0,1974-07-17,1983-10-20
50305,QUÉBEC - MYRAND,QUÉBEC,QUEBEC,QC,46.783611,-71.263333,0,1975-10-29,1980-03-31
50306,QUÉBEC - GOMIN,QUÉBEC,QUEBEC,QC,46.78806,-71.26056,0,1980-04-01,1998-08-17
50307,QUÉBEC - CARTIER-BRÉBEUF,QUÉBEC,QUEBEC,QC,46.824444,-71.234722,0,1983-11-01,1998-09-02
50308,QUÉBEC - VIEUX-LIMOILOU,QUÉBEC,QUEBEC,QC,46.821177,-71.220495,1,1989-12-16,
50309,QUÉBEC - SAINT-ANGE,QUÉBEC,QUEBEC,QC,46.76887,-71.40236,0,1991-01-03,2005-10-31
50310,QUÉBEC - COLLÈGE ST-CHARLES-GARNIER,QUÉBEC,QUEBEC,QC,46.794873,-71.246387,1,2000-09-07,
50311,QUÉBEC - ÉCOLE LES PRIMEVÈRES,QUÉBEC,QUEBEC,QC,46.774167,-71.369722,1,2005-01-18,
50313,QUÉBEC - HENRI-IV,QUÉBEC,QUEBEC,QC,46.781321,-71.308717,1,2019-12-31,
50314,QUÉBEC - CHARLESBOURG,QUÉBEC,QUEBEC,QC,46.861472,-71.257192,1,2020-12-31,
50404,SHERBROOKE - PARC-CAMBRON,SHERBROOKE,QUEBEC,QC,45.41231,-71.8746,0,2003-09-24,2022-02-23
50405,SHERBROOKE - PARC SYLVIE-DAIGLE,SHERBROOKE,QUEBEC,QC,45.414361,-71.882694,1,2023-03-16,
50504,SAGUENAY - UQAC,SAGUENAY,QUEBEC,QC,48.416374,-71.052412,1,2002-09-24,
50601,ROUYN-NORANDA - HOTEL DE VILLE,ROUYN-NORANDA,QUEBEC,QC,48.23704,-79.01706,0,1974-10-25,1992-09-09
50602,ROUYN-NORANDA - ÉCOLE LOOSEMORE,ROUYN-NORANDA,QUEBEC,QC,48.23333,-79.01139,0,1992-10-29,2002-11-29
50604,ROUYN-NORANDA - PARC TREMBLAY,ROUYN-NORANDA,QUEBEC,QC,48.234087,-78.982778,1,2001-01-01,
50701,SEPT-ÎLES - DE QUEN,SEPT-ÎLES,QUEBEC,QC,50.20984,-66.38546,0,1975-01-28,1984-09-30
50702,SEPT-ÎLES,SEPT-ÎLES,QUEBEC,QC,50.216266,-66.385195,1,2024-07-16,
50801,TROIS-RIVIÈRES - URSULINES,TROIS RIVIÈRES,QUEBEC,QC,46.34806,-72.5375,0,1975-07-01,2011-06-21
50802,TROIS-RIVIÈRES - DES DRAVEURS,TROIS RIVIÈRES,QUEBEC,QC,46.35103,-72.53904,0,2011-09-01,2014-06-25
50803,TROIS-RIVIÈRES - ÉCOLE MEES,TROIS RIVIÈRES,QUEBEC,QC,46.357175,-72.546187,1,2014-08-01,
50901,SAGUENAY - POWELL,SAGUENAY,QUEBEC,QC,48.43611,-71.19861,0,1975-06-19,1992-09-29
50902,SAGUENAY - PARC POWELL,SAGUENAY,QUEBEC,QC,48.43389,-71.18454,1,1989-04-04,
51001,SOREL-TRACY - LA FLÈCHE,SOREL-TRACY,QUEBEC,QC,46.0175,-73.15889,0,1977-01-01,1984-07-24
51111,DRUMMONDVILLE - STADE JACQUES-DESAUTELS,DRUMMONDVILLE,QUEBEC,QC,45.871345,-72.50309,1,2021-12-31,
51201,SHAWINIGAN - SAINT-MARC,SHAWINIGAN,QUEBEC,QC,46.55444,-72.73556,1,1977-08-04,
51301,BAIE-COMEAU - SAINTE-AMÉLIE,BAIE-COMEAU,QUEBEC,QC,49.21916,-68.14829,0,1977-07-26,1983-08-14
51302,BAIE-COMEAU - CENTRE CULTUREL,BAIE-COMEAU,QUEBEC,QC,49.2175,-68.14722,0,1987-01-01,2001-07-10
51401,SAINT-ÉTIENNE-DE-BEAUHARNOIS,SAINT-ÉTIENNE-DE-BEAUHARNOIS,QUEBEC,QC,45.25,-73.91667,0,1984-05-30,1987-10-13
51501,SAINT-ZÉPHIRIN-DE-COURVAL,ST. ZÉPHIRIN-DE-COURVAL,QUEBEC,QC,46.04223333,-72.65976111,1,1987-05-21,
51601,ST-FRANÇOIS-ÎLE-D'ORLÉANS - ARGENTENAY,ST-FRANÇOIS-ÎLE-D'ORLÉANS,QUEBEC,QC,47.01667,-70.8,0,1987-06-23,1987-10-13
51701,SAINT-BARNABÉ,ST-BARNABÉ,QUEBEC,QC,46.48333,-72.88333,0,1987-05-20,1987-10-14
51801,SAINT-JOSEPH-DE-SOREL - ÉCOLE MARTEL,SAINT-JOSEPH-DE-SOREL,QUEBEC,QC,46.045,-73.12972,0,1992-10-01,2009-12-31
51802,SOREL -TRACY - VIEUX-SOREL,SOREL-TRACY,QUEBEC,QC,46.04472,-73.11389,0,1998-01-01,2011-12-31
51901,FORESTVILLE - ROUTE 385,FORESTVILLE,QUEBEC,QC,48.85583,-69.09778,0,1992-09-23,1997-06-12
52001,CHARETTE,CHARETTE,QUEBEC,QC,46.4416,-72.89241,1,1989-01-01,
52101,SAINT-RÉMI-2,SAINT-RÉMI,QUEBEC,QC,45.20472,-73.64444,0,1992-01-01,1999-04-30
52201,SAINT-SIMON,SAINT-SIMON,QUEBEC,QC,45.715614,-72.840249,0,1989-04-06,2023-08-01
52301,SAINT-FAUSTIN-LAC-CARRÉ,SAINT-FAUSTIN-LAC-CARRÉ,QUEBEC,QC,46.035,-74.48083,1,1989-11-10,
52401,PARC DE LA GATINEAU-LA PÊCHE,LA PÊCHE,QUEBEC,QC,45.622378,-76.018046,1,1989-04-17,
52601,VARENNES - CH. DE LA BARONNIE,VARENNES,QUEBEC,QC,45.722896,-73.376808,0,1994-06-18,2016-10-05
52602,VARENNES - RIEP,VARENNES,QUEBEC,QC,45.67417,-73.43833,0,2001-01-01,2011-01-14
52701,TEMISCAMING,TEMISCAMING,QUEBEC,QC,46.721389,-79.099722,0,1998-01-01,2011-12-31
52801,AUCLAIR,AUCLAIR,QUEBEC,QC,47.73333,-68.70722,1,1990-05-01,
52901,SAINT-CHARLES-GARNIER - CÔTE-OUIMET,ST-CHARLES-GARNIER,QUEBEC,QC,48.29417,-68.11361,0,1990-06-20,1997-06-12
53001,SAINTE-MARGUERITE-MARIE-2,CAUSAPSCAL,QUEBEC,QC,48.31778,-67.06833,0,1991-03-01,1997-06-12
53101,RIVIÈRE-ÉTERNITÉ-2,RIVIÈRE-ÉTERNITÉ,QUEBEC,QC,48.25222,-70.40833,0,1990-10-23,1997-06-12
53201,RÉS. F. ASHUAPMUSHUAN - PEMONCA ,LA DORÉ,QUEBEC,QC,48.80972,-72.73889,1,1990-10-01,
53301,DESCHAMBAULT,DESCHAMBAULT,QUEBEC,QC,46.682373,-71.965903,1,1991-06-08,
53401,SAINTE-CATHERINE-DE-LA-JACQUES-CARTIER,STE-CATH.-DE-J-CARTIER,QUEBEC,QC,46.83694,-71.62278,0,1995-04-10,2011-12-31
53501,SAINT-FRANÇOIS-DE-LÎLE-D'ORLÉANS,ST-FRANÇOIS-ÎLE-D'ORLÉANS,QUEBEC,QC,47.015308,-70.862523,0,1989-01-24,2020-07-17
53601,NOTRE-DAME-DU-ROSAIRE,NOTRE-DAME-DU-ROSAIRE,QUEBEC,QC,46.84889,-70.45418,1,1989-07-27,
53701,SAINT-HILAIRE-DE-DORSET,ST-HILAIRE-DE-DORSET,QUEBEC,QC,45.82486111,-70.856025,1,1990-08-01,
53801,TINGWICK,TINGWICK,QUEBEC,QC,45.905785,-71.948695,1,1989-04-01,
53901,LAC-ÉDOUARD,LAC-ÉDOUARD,QUEBEC,QC,47.64722,-72.29056,0,1991-01-01,2021-11-11
54001,FORÊT MONTMORENCY,MONTMORENCY,QUEBEC,QC,47.31667,-71.15,0,1988-05-31,1996-12-31
54101,SUTTON - CHEMIN PERKINS,SUTTON,QUEBEC,QC,45.07637,-72.67639,0,1988-12-06,1993-09-28
54102,SUTTON - ROUND TOP RIDGE,SUTTON,QUEBEC,QC,45.08861,-72.55694,0,1996-06-01,2017-04-10
54201,CHAPAIS,CHAPAIS,QUEBEC,QC,49.822282,-74.9764,1,1988-06-10,
54301,SAINTE-FRANÇOISE,STE-FRANCOISE,QUEBEC,QC,46.43333,-71.93333,0,1993-02-26,2002-12-31
54401,SAINT-ANICET,SAINT-ANICET,QUEBEC,QC,45.120624,-74.2896,1,1994-06-18,
54501,L'ASSOMPTION,L'ASSOMPTION,QUEBEC,QC,45.80942,-73.43473,0,1996-05-14,2017-07-12
54601,MURDOCHVILLE - PARC LION,MURDOCHVILLE,QUEBEC,QC,48.95472,-65.49694,0,1998-01-01,2003-02-01
54703,BÉCANCOUR - HÔTEL-DE-VILLE,BECANCOUR,QUEBEC,QC,46.35,-72.43333,0,1998-01-01,2011-12-31
54801,EASTMAN - LAC STUKELY,STUKELY-SUD,QUEBEC,QC,45.365683,-72.265099,0,1989-05-07,2016-09-13
54901,LA PATRIE,DITTON,QUEBEC,QC,45.37333,-71.250167,1,1991-01-23,
55001,MONT ST-MICHEL,MONT SAINT-MICHEL,QUEBEC,QC,46.76866,-75.432728,1,1991-01-19,
55101,SENNETERRE,SENNETERRE,QUEBEC,QC,48.431648,-77.196674,1,1992-02-25,
55201,LEMIEUX,LEMIEUX,QUEBEC,QC,46.3037,-72.060685,0,1999-09-09,2016-09-21
55301,SAINT-JEAN-SUR-RICHELIEU - L'ACADIE,SAINT-JEAN-SUR-RICHELIEU,QUEBEC,QC,45.29413,-73.34857,1,1999-08-11,
55401,TROIS RIVIÈRES - CAP-DE-LA-MADELEINE,TROIS RIVIÈRES,QUEBEC,QC,46.362425,-72.51004167,0,2001-01-01,2011-12-31
55501,FRELIGHSBURG,FRELIGHSBURG,QUEBEC,QC,45.041384,-72.856506,0,2005-05-11,2016-11-29
55502,FRELIGHSBURG-B,FRELIGHSBURG,QUEBEC,QC,45.05006,-72.86161,1,2017-01-01,
55601,MINGAN,MINGAN,QUEBEC,QC,50.27136,-64.2265,0,2005-06-23,2017-05-06
55701,LÉVIS - CHARNY,LÉVIS,QUEBEC,QC,46.709496,-71.26752,0,2006-01-01,2015-11-18
55702,LÉVIS - PARC GEORGES-MARANDA,LÉVIS,QUEBEC,QC,46.806029,-71.167506,1,2015-12-31,
55801,GRANBY - PARC POITEVIN,GRANBY,QUEBEC,QC,45.418639,-72.730667,1,2022-01-18,
60101,OTTAWA - HYDRO BUILDING,OTTAWA,ONTARIO,ON,45.42111,-75.695,0,1974-01-01,2004-12-31
60104,OTTAWA DOWNTOWN - RIDEAU & WURTEMBURG,OTTAWA,ONTARIO,ON,45.43433,-75.676,1,1976-01-01,
60105,OTTAWA - NRC,OTTAWA,ONTARIO,ON,45.44111,-75.61528,0,1980-01-01,1983-12-31
60106,OTTAWA  CENTRAL - 960 CARLING AVE,OTTAWA,ONTARIO,ON,45.38287,-75.71387,0,2007-01-01,2017-12-31
60201,WINDSOR - MORTON TERMINAL DOCK,WINDSOR,ONTARIO,ON,42.26667,-83.09583,0,1974-01-01,1984-04-25
60203,WINDSOR - TECUMSEH WATER WORKS,WINDSOR,ONTARIO,ON,42.33806,-82.92722,0,1999-01-08,2000-12-31
60204,WINDSOR DOWNTOWN - 467 UNIVERSITY AVE. WEST,WINDSOR,ONTARIO,ON,42.315778,-83.043667,1,1974-01-01,
60211,WINDSOR WEST - COLLEGE & SOUTH ST. ,WINDSOR,ONTARIO,ON,42.292889,-83.073139,1,1975-01-05,
60212,WINDSOR - WRIGHT & WATER ST.,WINDSOR,ONTARIO,ON,42.27583,-83.09667,0,1985-01-01,2000-12-21
60302,KINGSTON - 1,KINGSTON,ONTARIO,ON,44.23067,-76.50883,0,1976-02-01,2005-12-31
60303,KINGSTON - 2,KINGSTON,ONTARIO,ON,44.220081,-76.52141,0,2007-01-01,2013-12-31
60304,KINGSTON - 3,KINGSTON,ONTARIO,ON,44.21987,-76.52113,1,2013-12-31,
60401,TORONTO - 67 COLLEGE ST.,TORONTO,ONTARIO,ON,43.66028,-79.3875,0,1974-01-01,1981-06-18
60402,TORONTO - ONTARIO SCIENCE CENTRE,TORONTO,ONTARIO,ON,43.715,-79.34111,0,1974-01-01,1992-03-03
60403,ETOBIOKE SOUTH - EVANS & ARNOLD,TORONTO,ONTARIO,ON,43.61917,-79.51833,0,1974-01-01,2001-02-12
60409,TORONTO - REDLAND CRESCENT,TORONTO,ONTARIO,ON,43.70917,-79.2375,0,1976-01-01,1992-02-21
60410,TORONTO EAST,TORONTO,ONTARIO,ON,43.74792,-79.27406,1,1974-01-01,
60411,TORONTO - PHARMACY & HWY 401,TORONTO,ONTARIO,ON,43.76902,-79.31463,0,1974-01-01,1978-12-31
60412,TORONTO - BATHURST & WILSON,TORONTO,ONTARIO,ON,43.73583,-79.43667,0,1976-01-01,1985-05-28
60413,ETOBICOKE WEST - CENTENNIAL PARK,TORONTO,ONTARIO,ON,43.64852,-79.59138,0,1976-01-01,2016-01-13
60414,TORONTO - SHERBOURNE & WILTON ST.,TORONTO,ONTARIO,ON,43.6475,-79.36778,0,1977-11-01,1986-03-25
60415,MISSISSAUGA - MISSISSAUGA HOSPITAL,MISSISSAUGA,ONTARIO,ON,43.56862,-79.61058,0,1978-01-01,2004-05-10
60416,TORONTO - 381 YONGE ST.,TORONTO,ONTARIO,ON,43.66667,-79.38333,0,1979-01-01,1994-09-07
60417,TORONTO - 26 BREADALBANE ST. ,TORONTO,ONTARIO,ON,43.66083,-79.38583,0,1981-06-15,1990-10-15
60418,TORONTO - JUNCTION TRIANGLE,TORONTO,ONTARIO,ON,43.662933,-79.451538,0,1981-03-20,2006-03-30
60419,TORONTO - CN TOWER,TORONTO,ONTARIO,ON,43.65,-79.38333,0,1985-07-01,1995-12-31
60420,TORONTO - LEASIDE HYDRO STATION,TORONTO,ONTARIO,ON,43.7,-79.35,0,1988-06-01,1993-04-16
60421,TORONTO NORTH - YONGE ST. & HENDON AVE.,TORONTO,ONTARIO,ON,43.781584,-79.41773,0,1988-06-01,2016-12-31
60422,TORONTO - 33 EDGAR AVE.,TORONTO,ONTARIO,ON,43.71667,-79.53333,0,1988-06-01,1993-04-25
60423,TORONTO - CLEARVIEW HEIGHTS,TORONTO,ONTARIO,ON,43.7,-79.48333,0,1988-06-01,2000-12-31
60424,TORONTO DOWNTOWN - BAY & WELLESLEY - 1,TORONTO,ONTARIO,ON,43.66297,-79.38811,0,1990-10-18,2002-12-31
60425,TORONTO DOWNTOWN - QUEEN & UNIVERSITY,TORONTO,ONTARIO,ON,43.65028,-79.38694,0,1995-11-10,1999-03-07
60426,TORONTO - CLARKSON REFINERY,TORONTO,ONTARIO,ON,43.5075,-79.608333,0,1996-07-02,2000-11-20
60427,TORONTO - GAGE INSTITUTE,TORONTO,ONTARIO,ON,43.658222,-79.397183,0,,2014-06-22
60428,BRAMPTON - 525 MAIN ST. N.,BRAMPTON,ONTARIO,ON,43.69875,-79.78092,0,2000-06-21,2016-12-31
60429,ETOBICOKE SOUTH - JUDSON ST. & ETONA CT.,TORONTO,ONTARIO,ON,43.613587,-79.507537,0,2001-02-27,2012-12-31
60430,TORONTO WEST - 125 RESOURCES. RD.,TORONTO,ONTARIO,ON,43.709444,-79.5435,1,2000-01-01,
60432,MISSISSAUGA - FRANK MCKECHNIE COMMERCIAL CENTRE,MISSISSAUGA,ONTARIO,ON,43.61583,-79.6525,0,2004-05-11,2007-12-31
60433,TORONTO DOWNTOWN - BAY & WELLESLEY - 2,TORONTO,ONTARIO,ON,43.66417,-79.38722,0,2003-01-01,2019-10-11
60434,MISSISSAUGA - 3359 MISSISSAUGA RD.,MISSISSAUGA,ONTARIO,ON,43.54697,-79.65869,1,2008-01-01,
60435,ETOBICOKE SOUTH - 461 KIPLING AVENUE ,TORONTO,ONTARIO,ON,43.610761,-79.52194,1,2009-01-03,
60438,TORONTO - ROADSIDE - 401W,TORONTO,ONTARIO,ON,43.71110556,-79.543425,1,2016-01-01,
60439,TORONTO - ROADSIDE - WALLBERG,TORONTO,ONTARIO,ON,43.659018,-79.395385,0,2013-11-30,2019-06-20
60440,TORONTO NORTH - 4905 DUFFERIN ST. ,TORONTO,ONTARIO,ON,43.78042,-79.46752,1,2017-01-01,
60445,TORONTO DOWNTOWN - 55 JOHN ST. ,TORONTO,ONTARIO,ON,43.64543,-79.38908,1,2019-06-21,
60450,BRAMPTON - 109 MCLAUGHLIN RD. S.,BRAMPTON,ONTARIO,ON,43.669567,-79.76567,1,2016-12-31,
60501,HAMILTON - WOODLANDS PARK,HAMILTON,ONTARIO,ON,43.25917,-79.84389,0,1974-01-01,2000-12-31
60505,HAMILTON - NORTH PARK,HAMILTON,ONTARIO,ON,43.28222,-79.78833,0,1974-01-30,1984-10-30
60511,HAMILTON - 467 BEACH BLVD.,HAMILTON,ONTARIO,ON,43.275799,-79.781415,0,1984-10-19,2000-12-31
60512,HAMILTON DOWNTOWN - ELGIN & KELLY,HAMILTON,ONTARIO,ON,43.25778,-79.86167,1,1987-02-06,
60513,HAMILTON MOUNTAIN - VICKERS RD. & EAST 18TH. ST.- 1,HAMILTON,ONTARIO,ON,43.22942,-79.86278,0,1985-10-10,2018-12-31
60514,HAMILTON - NASH RD. & KENTLEY DR.,HAMILTON,ONTARIO,ON,43.23333,-79.76667,0,1985-02-01,1996-09-09
60515,HAMILTON WEST - MAIN ST. & HWY 403,HAMILTON,ONTARIO,ON,43.25744,-79.90775,1,1985-07-04,
60516,MILTON - HARBOUR BAY FRONT,MILTON,ONTARIO,ON,43.48333,-79.91667,0,1999-08-28,2000-02-24
60517,HAMILTON - CONFEDERATION PARK,HAMILTON,ONTARIO,ON,43.24722,-79.75111,0,1999-08-28,2002-11-28
60518,HAMILTON - HOMESIDE II,HAMILTON,ONTARIO,ON,43.24917,-79.79472,0,2000-03-07,2000-05-31
60519,HAMILTON - NIAGARA & LAND ST.,HAMILTON,ONTARIO,ON,43.27,-79.84056,0,2000-02-23,2000-12-31
60521,HAMILTON MOUNTAIN - 250 FENNELL AVE W.,HAMILTON,ONTARIO,ON,43.24132,-79.88941,1,2019-01-01,
60602,HAMILTON - ASH ST.,SUDBURY,ONTARIO,ON,46.49472,-81.00778,0,1974-01-02,2000-12-31
60606,SUDBURY - KENNEDY ST.,SUDBURY,ONTARIO,ON,46.52333,-80.9425,0,1977-01-01,2000-12-21
60607,SUDBURY - SCIENCE CENTRE NORTH ,SUDBURY,ONTARIO,ON,46.47569,-80.96294,0,1984-08-01,2004-12-31
60609,SUDBURY - RAMSEY LAKE RD. ,SUDBURY,ONTARIO,ON,46.47567,-80.963,0,2004-06-28,2012-12-31
60610,SUDBURY - APPLEGROVE ST. / BIRCH ST.,SUDBURY,ONTARIO,ON,46.49194,-81.00311,1,2013-01-01,
60704,SAULT STE. MARIE - QUEEN & ELGIN,SAULT STE. MARIE,ONTARIO,ON,46.51194,-84.33333,0,1977-01-05,1983-02-22
60705,SAULT STE. MARIE - 550 QUEEN ST. WEST,SAULT STE. MARIE,ONTARIO,ON,46.51944,-84.35556,0,1978-01-18,1980-03-07
60706,SAULT STE. MARIE - FARWELL PUMP HOUSE,SAULT STE. MARIE,ONTARIO,ON,46.52917,-84.36111,0,1983-02-22,1987-04-06
60707,SAULT STE. MARIE - WM. MERRIFIELD SCHOOL ,SAULT STE. MARIE,ONTARIO,ON,46.52786,-84.35432,0,1987-02-01,2003-12-31
60708,SAULT STE. MARIE - BONNEY ST. PUMPHOUSE,SAULT STE. MARIE,ONTARIO,ON,46.51667,-84.38333,0,2000-01-01,2001-09-25
60709,SAULT STE. MARIE - SAULT COLLEGE ,SAULT STE. MARIE,ONTARIO,ON,46.53319,-84.30992,1,2004-01-01,
60806,THUNDER BAY - 435 JAMES SOUTH,THUNDER BAY,ONTARIO,ON,48.37778,-89.29028,0,1976-01-01,1986-11-06
60807,THUNDER BAY - 615 JAMES ST. SOUTH,THUNDER BAY,ONTARIO,ON,48.37303,-89.29157,1,1986-10-29,
60809,THUNDER BAY - 421 JAMES ST. SOUTH ,THUNDER BAY,ONTARIO,ON,48.37939,-89.29017,0,2004-01-01,2024-09-24
60901,LONDON - QUEEN'S PARK,LONDON,ONTARIO,ON,42.98917,-81.22417,0,1974-01-01,1995-06-27
60903,LONDON - HIGHBURY AVE. ,LONDON,ONTARIO,ON,43.00672,-81.20642,0,1995-07-04,2013-03-05
60904,LONDON - 42 ST. JULIEN ST. ,LONDON,ONTARIO,ON,42.97446,-81.20086,1,2012-12-31,
61001,SARNIA - 156 VICTORIA ST.,SARNIA,ONTARIO,ON,42.97306,-82.40611,0,1974-01-01,1978-12-29
61004,SARNIA - CENTENNIAL PARK ,SARNIA,ONTARIO,ON,42.98228,-82.40508,0,1978-07-20,2015-12-31
61005,SARNIA - MTC SHED,SARNIA,ONTARIO,ON,42.95,-82.2,0,1980-01-01,2001-12-31
61007,AAMJIWNAANG,SARNIA,ONTARIO,ON,42.912545,-82.416816,1,2008-08-16,
61009,SARNIA - 700 CHRISTINA ST. NORTH ,SARNIA,ONTARIO,ON,42.990263,-82.395341,1,2016-04-06,
61103,PETERBOROUGH - 500 GEORGE ST.,PETERBOROUGH,ONTARIO,ON,44.30889,-78.32056,0,1977-01-01,1997-06-19
61104,PETERBOROUGH - 10 HOSPITAL DR.,PETERBOROUGH,ONTARIO,ON,44.30183333,-78.34638611,1,1998-12-01,
61201,CORNWALL - MEMORIAL PARK,CORNWALL,ONTARIO,ON,45.0179806,-74.7353139,1,1975-01-01,
61301,ST. CATHARINES - NORTH ST. & GENEVA ST.,ST. CATHARINES,ONTARIO,ON,43.16472,-79.23917,0,1976-05-07,1986-09-29
61302,ST. CATHARINES - ARGYLE CRES.,ST. CATHARINES,ONTARIO,ON,43.16006,-79.23475,1,1987-07-31,
61401,BRANTFORD - DALHOUSIE & QUEEN,BRANTFORD,ONTARIO,ON,43.13928,-80.26588,0,1976-01-21,1980-05-26
61402,BRANTFORD - 324 GRAND RIVER AVE.,BRANTFORD,ONTARIO,ON,43.13861,-80.29264,1,2004-01-01,
61501,KITCHENER - WEBER PARK,KITCHENER,ONTARIO,ON,43.45778,-80.47222,0,1976-08-05,2014-12-31
61502,KITCHENER - WEST AVE. & HOMEWOOD,KITCHENER,ONTARIO,ON,43.44383,-80.50381,1,1990-07-05,
61601,OAKVILLE - REBECCA & WOODSIDE,OAKVILLE,ONTARIO,ON,43.4175,-79.69917,0,1977-01-01,1980-03-11
61602,OAKVILLE - BRONTE RD. & WOBURN CRES. ,OAKVILLE,ONTARIO,ON,43.400621,-79.727495,0,1980-04-09,2006-10-14
61603,OAKVILLE - 8TH LINE/GLENASHTON DR. ,OAKVILLE,ONTARIO,ON,43.48692,-79.70228,1,2003-05-29,
61701,OSHAWA - RITSON RD. & OLIVE AVE. ,OSHAWA,ONTARIO,ON,43.88908,-78.84996,0,1979-01-10,2008-12-31
61702,OSHAWA - DURHAM COLLEGE ,OSHAWA,ONTARIO,ON,43.94594,-78.89492,0,2005-04-29,2017-12-31
61703,OSHAWA - BRITANNIA AVE. WEST ,OSHAWA,ONTARIO,ON,43.95222,-78.9125,1,2018-01-29,
61801,GUELPH - FARQUHAR & WYNDHAM,GUELPH,ONTARIO,ON,43.54333,-80.24667,0,1980-08-21,1985-12-31
61802,GUELPH - EXHIBITION PARK ARENA,GUELPH,ONTARIO,ON,43.55163611,-80.26415556,1,1986-01-16,
61901,WALPOLE ISLAND,WALPOLE ISLAND,ONTARIO,ON,42.53833,-82.41111,0,1988-01-22,1995-03-22
61902,CHATHAM-KENT - BARK CREEK/WALLACEBURG,CHATHAM-KENT,ONTARIO,ON,42.53558,-82.3897,0,2005-12-18,2012-12-29
62001,NORTH BAY - DND - CHIPPEWA ST.,NORTH BAY,ONTARIO,ON,46.32323,-79.44928,1,1988-01-01,
62101,HURON PARK - COLLEGE OF AGRIC.,HURON PARK,ONTARIO,ON,43.28333,-81.5,0,1980-01-01,1991-11-09
62201,MERLIN - MOE WATER PUMP STN.,MERLIN,ONTARIO,ON,42.24407,-82.22301,0,1980-01-01,2004-12-31
62401,PARKHILL - PUC BUILDING,PARKHILL,ONTARIO,ON,43.16667,-81.68333,0,1983-07-22,2001-12-31
62501,TIVERTON - BRUCE NUCLEAR VISITOR CENTRE,TIVERTON,ONTARIO,ON,44.31447,-81.54972,1,1980-01-01,
62601,SIMCOE - EXPERIMENTAL FARM,SIMCOE,ONTARIO,ON,42.85685,-80.26964,1,1980-01-01,
62701,LONG POINT - PRONVINCIAL PARK,LONG POINT,ONTARIO,ON,42.58333,-80.38333,0,1980-01-01,2001-12-31
62801,WATERLOO - WEBER & UNIVERSITY,WATERLOO,ONTARIO,ON,43.48333,-80.51667,0,1988-06-01,1991-12-31
62901,NIAGARA FALLS - ALLENDALE AVE.,NIAGARA FALLS,ONTARIO,ON,43.08333,-79.08333,0,1988-05-18,1993-10-28
62902,NIAGARA FALLS - STANLEY/HWY 405,NIAGARA FALLS,ONTARIO,ON,43.1,-79.08333,0,1993-10-29,1996-09-09
63001,BURLINGTON - HWY 2 & NORTH SHORE BLVD.,BURLINGTON,ONTARIO,ON,43.314575,-79.80275556,1,1980-01-01,
63101,ALLISTON - 509 VICTORIA ST. E.,ALLISTON,ONTARIO,ON,44.15,-79.85,0,1981-06-26,1994-08-25
63201,STOUFFVILLE - YORK REGION - HWY 47 & HWY 48,STOUFFVILLE,ONTARIO,ON,43.96458,-79.26607,0,1980-01-01,2005-12-31
63301,DORSET - HWY 117 & PAINT LAKE RD.,DORSET,ONTARIO,ON,45.224278,-78.932944,1,1981-04-14,
63401,HAWKEYE LAKE,HAWKEYE LAKE,ONTARIO,ON,48.66667,-89.48333,0,1983-06-13,1991-12-31
63501,HIGH FALLS,HIGH FALLS,ONTARIO,ON,46.3807,-81.5448,0,1984-10-01,1986-05-02
63601,LONGWOODS CONS. AUTHORITY,LONGWOODS,ONTARIO,ON,42.88333,-81.48333,1,1988-02-18,
63701,GRAND BEND - POINT BLAKE CONSERVATION AUTHORITY,GRAND BEND,ONTARIO,ON,43.33318611,-81.74282222,1,1993-01-01,
63801,NANTICOKE - NANTICOKE VILLAGE,NANTICOKE,ONTARIO,ON,42.81667,-80.08333,0,1993-01-13,1994-05-08
63802,NANTICOKE - SOUTH WALPOLE,NANTICOKE,ONTARIO,ON,42.83333,-80.03333,0,1993-01-25,1994-05-09
63901,CLOUD RIVER,CLOUD RIVER,ONTARIO,ON,48.15,-89.45,0,1993-01-01,1996-07-26
64001,EXPERIMENTAL LAKES AREA,EXP. LAKES AREA,ONTARIO,ON,49.66389,-93.72111,1,1988-05-09,
64101,ALGOMA,ALGOMA,ONTARIO,ON,47.03361,-84.37889,0,1988-05-17,2024-05-08
64102,SEARCHMONT,SEARCHMONT,ONTARIO,ON,46.765945,-84.033624,1,2023-12-07,
64201,CHALK RIVER,CHALK RIVER,ONTARIO,ON,46.06278,-77.40472,0,1988-05-17,1997-04-23
64301,LONGWOODS,LONGWOODS,ONTARIO,ON,42.88472,-81.48056,0,1988-05-06,1990-05-31
64401,EGBERT,EGBERT,ONTARIO,ON,44.23106,-79.7831,1,1988-07-26,
64501,FORT FRANCES - PORTAGE/ CHRUCH ST.,FORT FRANCES,ONTARIO,ON,48.61667,-93.4,0,1993-07-26,1996-12-31
64502,FORT FRANCES - ROBERT MOORE P.S.,FORT FRANCES,ONTARIO,ON,48.63333,-93.38333,0,1997-01-07,2000-12-31
64601,PT. PETRE,PT. PETRE,ONTARIO,ON,43.839897,-77.155138,0,1996-08-25,2011-07-02
64701,WASAGA BEACH,WASAGA BEACH,ONTARIO,ON,44.564645,-79.99407,0,2000-06-09,2000-09-29
65001,BARRIE - OLD PUC,BARRIE,ONTARIO,ON,44.38231389,-79.70243056,1,2001-12-01,
65101,NEWMARKET - EAGLE ST. & MCAFFREY RD.,NEWMARKET,ONTARIO,ON,44.04431,-79.48325,1,2001-06-01,
65201,PARRY SOUND - 7 BAY ST.,PARRY SOUND,ONTARIO,ON,45.33786,-80.03817,1,2001-04-01,
65301,PORT STANLEY - ELGIN WATER TREATMENT PLANT,PORT STANLEY,ONTARIO,ON,42.67208,-81.16289,1,2002-06-05,
65401,BELLEVILLE - WATER TREATMENT PLANT,BELLEVILLE,ONTARIO,ON,44.15053,-77.3955,1,2002-08-01,
65501,BURNT ISLAND,BURNT ISLAND,ONTARIO,ON,45.8081,-82.9508,0,2003-09-18,2011-06-08
65601,ESSEX - 360 FAIRVIEW AVE. W.,ESSEX,ONTARIO,ON,42.16,-82.83333,0,2003-10-24,2008-12-31
65701,MORRISBURG - COUNTY RD. 2,MORRISBURG,ONTARIO,ON,44.89975,-75.18994,0,2005-01-01,2014-12-31
65801,CHATHAM - 435 GRAND AVENUE W.,CHATHAM,ONTARIO,ON,42.40369,-82.20831,1,2005-01-01,
65901,PICKLE LAKE,PICKLE LAKE,ONTARIO,ON,51.44814,-90.21786,1,2006-03-09,
66001,FRASERDALE,FRASERDALE,ONTARIO,ON,49.88333,-81.56666,0,2005-01-27,2007-07-27
66101,BONNER LAKE,MOONBEAM,ONTARIO,ON,49.386389,-82.121389,1,2006-11-08,
66201,PETAWAWA - 1227 CLOUTHIER RD.,PETAWAWA,ONTARIO,ON,45.996722,-77.441194,0,2007-01-01,2022-01-01
67001,MILTON - 1120 MAIN ST EAST,MILTON,ONTARIO,ON,43.52965,-79.862449,1,2019-01-01,
70101,270 OSBORNE STREET,WINNIPEG,MANITOBA,MB,49.87381,-97.14167,0,1974-01-01,1977-12-20
70102,PORTAGE & WOODLAWN,WINNIPEG,MANITOBA,MB,49.87778,-97.23333,0,1974-01-01,1980-02-07
70103,HARTFORD & MAIN,WINNIPEG,MANITOBA,MB,49.93639,-97.11775,0,1974-01-04,1976-01-15
70104,UNION STOCK YARDS,WINNIPEG,MANITOBA,MB,49.88,-97.08556,0,1974-01-01,1979-09-24
70118,SCOTIA,WINNIPEG,MANITOBA,MB,49.93207,-97.11317,1,1976-01-24,
70119,ELLEN,WINNIPEG,MANITOBA,MB,49.89799,-97.14653,1,1978-01-24,
70121,301 WESTON STREET,WINNIPEG,MANITOBA,MB,49.8,-97.1,0,1995-01-21,1995-03-07
70201,11TH ST. & PRINCESS AVE.,BRANDON,MANITOBA,MB,49.84693,-99.95258,0,1974-02-19,1978-02-28
70202,12TH ST. & HILL AVE.,BRANDON,MANITOBA,MB,49.83187,-99.95402,0,1978-03-01,1979-09-14
70203,BRANDON,BRANDON,MANITOBA,MB,49.83918,-99.9206,1,1987-01-01,
70301,FLIN FLON,FLIN FLON,MANITOBA,MB,54.76852,-101.87747,1,2002-01-01,
70501,THOMPSON WESTWOOD,THOMPSON,MANITOBA,MB,55.74719,-97.87353,0,2011-01-01,2020-06-23
80108,REGINA - 12TH,REGINA,SASKATCHEWAN,SK,50.39889,-104.61389,0,1974-01-01,1978-06-01
80109,REGINA - 1620 ALBERT,REGINA,SASKATCHEWAN,SK,50.45306,-104.61778,0,1978-06-05,1986-06-25
80110,REGINA - 11TH,REGINA,SASKATCHEWAN,SK,50.45017,-104.61722,0,1986-10-01,2014-06-16
80111,REGINA - 1621 ALBERT,REGINA,SASKATCHEWAN,SK,50.4527,-104.616,1,2011-01-15,
80202,SASKATOON - CITY LIBRARY,SASKATOON,SASKATCHEWAN,SK,52.12964,-106.65959,0,1974-01-01,1979-03-29
80209,SASKATOON - IDYLWYLD,SASKATOON,SASKATCHEWAN,SK,52.14333,-106.66889,0,1979-04-03,1992-11-02
80211,SASKATOON - CORMAN PARK,SASKATOON,SASKATCHEWAN,SK,52.13613,-106.66293,1,1992-11-06,
80301,MOOSEJAW - FAIRFORD,MOOSEJAW,SASKATCHEWAN,SK,50.39444,-105.53833,0,1974-01-01,1983-06-06
80401,PRINCE ALBERT - 1ST,PRINCE ALBERT,SASKATCHEWAN,SK,53.20306,-105.75278,0,1975-05-21,1995-04-16
80402,PRINCE ALBERT - 12TH,PRINCE ALBERT,SASKATCHEWAN,SK,53.201694,-105.75203,1,2005-01-01,
80501,ESTEVAN - 1,ESTEVAN,SASKATCHEWAN,SK,49.14083,-103.00111,0,1984-03-27,1996-04-09
80502,ESTEVAN - 1a,ESTEVAN,SASKATCHEWAN,SK,49.13235,-102.98499,1,2017-02-03,
80601,LLOYDMINSTER - 44TH,LLOYDMINSTER,SASKATCHEWAN,SK,53.27833,-110,0,1984-01-01,1996-04-02
80701,CORONACH,CORONACH,SASKATCHEWAN,SK,49.11667,-105.51667,0,1991-05-23,1992-03-29
80801,PENSE,PENSE,SASKATCHEWAN,SK,50.34861,-104.98333,0,1992-05-07,1993-08-29
80901,BRATT'S LAKE,BRATT'S LAKE,SASKATCHEWAN,SK,50.20081,-104.71072,1,1998-05-05,
81001,SWIFT CURRENT,SWIFT CURRENT,SASKATCHEWAN,SK,50.285833,-107.81689,1,2009-01-01,
82001,PINEHOUSE LAKE,PINEHOUSE LAKE,SASKATCHEWAN,SK,55.50333,-106.72167,1,2016-01-01,
82002,BUFFALO NARROWS,BUFFALO NARROWS,SASKATCHEWAN,SK,55.834566,-108.403332,1,2017-01-01,
82101,FLAT VALLEY,FLAT VALLEY,SASKATCHEWAN,SK,54.29489,-109.20947,1,2016-02-11,
90114,EDMONTON - 109TH ST. & 98TH AVE.,EDMONTON,ALBERTA,AB,53.53555,-113.50896,0,1974-01-01,1976-12-02
90120,EDMONTON - SOUTH,EDMONTON,ALBERTA,AB,53.50022,-113.526056,0,2005-09-21,2021-12-31
90121,EDMONTON - EAST,EDMONTON,ALBERTA,AB,53.54823,-113.36811,1,1974-01-01,
90122,EDMONTON - NORTHWEST,EDMONTON,ALBERTA,AB,53.59472,-113.53889,0,1974-01-01,2010-12-31
90130,EDMONTON - CENTRAL,EDMONTON,ALBERTA,AB,53.54445,-113.49884,0,1976-12-03,2020-12-31
90131,SHERWOOD PARK - BROADMOOR BLVD.,SHERWOOD PARK,ALBERTA,AB,53.53194,-113.32056,0,2001-01-01,2004-02-29
90132,EDMONTON - MCINTYRE,EDMONTON,ALBERTA,AB,53.486,-113.4646,1,2006-09-26,
90133,EDMONTON - WOODCROFT,EDMONTON,ALBERTA,AB,53.564411,-113.562583,1,2014-01-01,
90134,SHERWOOD PARK,SHERWOOD PARK,ALBERTA,AB,53.532092,-113.320983,1,2015-05-01,
90135,ARDROSSAN,ARDROSSAN,ALBERTA,AB,53.554691,-113.144905,1,2015-06-01,
90136,ST. ALBERT,ST. ALBERT,ALBERTA,AB,53.626908,-113.611883,1,2016-04-06,
90140,EDMONTON - MCCAULEY,EDMONTON,ALBERTA,AB,53.5495,-113.4859,1,2020-01-01,
90141,EDMONTON-LENDRUM,EDMONTON,ALBERTA,AB,53.4978,-113.527,1,2021-12-01,
90204,CALGARY - 316 7TH AVE.,CALGARY,ALBERTA,AB,51.045,-114.04861,0,1984-08-28,1987-04-27
90218,CALGARY - EAST,CALGARY,ALBERTA,AB,51.00943,-114.02542,0,1974-01-01,2011-04-28
90219,CALGARY - 620 7TH AVE. S.W.,CALGARY,ALBERTA,AB,51.04694,-114.07472,0,1974-01-01,1979-04-30
90220,CALGARY - 26 AVE. & 4 ST. N.W.,CALGARY,ALBERTA,AB,51.07606,-114.07148,0,1974-01-01,1974-06-30
90222,CALGARY - NORTHWEST,CALGARY,ALBERTA,AB,51.079222,-114.141828,0,1974-07-10,2018-05-29
90227,CALGARY - CENTRAL ,CALGARY,ALBERTA,AB,51.04778,-114.07556,0,1979-05-01,2008-02-14
90228,CALGARY - CENTRAL - 2,CALGARY,ALBERTA,AB,51.04701,-114.07564,0,2008-01-01,2015-03-30
90229,CALGARY - SOUTHEAST,CALGARY,ALBERTA,AB,50.955122,-113.969742,1,2014-04-10,
90230,CALGARY - CENTRAL - INGLEWOOD,CALGARY,ALBERTA,AB,51.0309,-114.0091,1,2015-04-06,
90235,CALGARY - VARSITY,CALGARY,ALBERTA,AB,51.082655,-114.138827,1,2018-06-01,
90250,AIRDRIE,AIRDRIE,ALBERTA,AB,51.26807778,-114.0377944,1,2017-04-01,
90302,RED DEER - RIVERSIDE,RED DEER,ALBERTA,AB,52.29867,-113.79352,1,2000-01-01,
90304,RED DEER - LANCASTER,RED DEER,ALBERTA,AB,52.24095,-113.765439,1,2015-01-01,
90402,MEDICINE HAT - CRESCENT HEIGHTS,MEDICINE HAT,ALBERTA,AB,50.04893,-110.68116,1,2004-01-01,
90451,BROOKS - MEADOWPLACE,BROOKS,ALBERTA,AB,50.558969,-111.863769,1,2024-08-01,
90502,LETHBRIDGE,LETHBRIDGE,ALBERTA,AB,49.71621,-112.8006,1,2003-10-01,
90601,FORT SASKATCHEWAN,FORT SASKATCHEWAN,ALBERTA,AB,53.69874,-113.22285,1,1986-07-01,
90602,RANGE RD. 220,FORT SASKATCHEWAN,ALBERTA,AB,53.75236,-113.12589,1,2004-01-01,
90603,ROSS CREEK,FORT SASKATCHEWAN,ALBERTA,AB,53.71622,-113.19994,1,2004-01-01,
90604,SCOTFORD,FORT SASKATCHEWAN,ALBERTA,AB,53.79142,-113.07867,0,2004-01-01,2014-03-31
90605,STATION 401,FORT SASKATCHEWAN,ALBERTA,AB,53.7107,-113.16461,0,2004-01-01,2010-03-30
90606,BRUDERHEIM,BRUDERHEIM,ALBERTA,AB,53.7999878,-112.92781,0,2010-04-07,2016-02-29
90607,GIBBONS,GIBBONS,ALBERTA,AB,53.827241,-113.327174,1,2016-02-03,
90608,REDWATER,REDWATER,ALBERTA,AB,53.95183,-113.105857,1,2017-10-18,
90609,BRUDERHEIM - 1,BRUDERHEIM,ALBERTA,AB,53.805629,-112.925851,1,2016-04-01,
90701,FORT MCMURRAY - ATHABASCA VALLEY,FORT MCMURRAY,ALBERTA,AB,56.73341,-111.39047,1,1986-07-01,
90702,FORT MCMURRAY - PATRICIA MCINNES,FORT MCMURRAY,ALBERTA,AB,56.75139,-111.47662,1,1999-01-01,
90703,MILLENNIUM MINE,FORT MCMURRAY,ALBERTA,AB,56.969267,-111.40065,0,2005-01-01,2015-08-28
90801,FORT MCKAY - BERTHA GANTER,FORT MCKAY,ALBERTA,AB,57.18941,-111.6405,1,1991-01-01,
90802,LOWER CAMP,FORT MCKAY,ALBERTA,AB,57.02681,-111.5007,1,2004-01-01,
90803,MILDRED LAKE,FORT MCKAY,ALBERTA,AB,57.05,-111.56444,0,2001-01-01,2015-12-31
90804,MANNIX,FORT MCKAY,ALBERTA,AB,56.96791,-111.4824,1,2001-01-01,
90805,BUFFALO VIEWPOINT,FORT MCKAY,ALBERTA,AB,56.99647,-111.59295,1,2001-01-01,
90806,FORT MCKAY - SOUTH,FORT MCKAY,ALBERTA,AB,57.1492,-111.6424,1,2004-01-01,
90807,WAPASU CREEK,WAPASU,ALBERTA,AB,57.26176,-111.037,1,2015-01-01,
90808,STONY MOUNTAIN,CONKLIN,ALBERTA,AB,55.621408,-111.17269,1,2016-04-01,
90809,CONKLIN,CONKLIN,ALBERTA,AB,55.632331,-111.078872,1,2022-01-01,
90901,ROYAL PARK,VEGREVILLE,ALBERTA,AB,53.57528,-112.19389,0,1993-04-01,2014-12-31
91001,ESTHER,ESTHER,ALBERTA,AB,51.66975,-110.20653,0,1994-07-11,2015-11-04
91101,ELK ISLAND,ELK ISLAND,ALBERTA,AB,53.68238,-112.86812,1,2002-02-01,
91201,HIGHTOWER RIDGE,HIGHTOWER RIDGE,ALBERTA,AB,53.64675,-118.17837,0,1997-01-01,2012-07-10
91301,TOMAHAWK,TOMAHAWK,ALBERTA,AB,53.37255,-114.76835,0,1997-01-29,2022-09-30
91401,VIOLET GROVE,VIOLET GROVE,ALBERTA,AB,53.14222,-115.13806,0,1997-01-01,2021-08-24
91501,BEAVERLODGE,BEAVERLODGE,ALBERTA,AB,55.19634,-119.39682,1,1998-01-01,
91601,CARROT CREEK,CARROT CREEK,ALBERTA,AB,53.621062,-115.869155,1,1998-05-01,
91701,STEEPER,STEEPER,ALBERTA,AB,53.1325,-117.09111,1,1998-01-01,
91801,FORT CHIPEWYAN,FORT CHIPEWYAN,ALBERTA,AB,58.70879,-111.17683,1,1999-01-01,
91901,CAROLINE,CAROLINE,ALBERTA,AB,51.94687,-114.69744,1,2000-08-05,
92001,GRANDE PRAIRIE - HENRY PIRKER,GRANDE PRAIRIE,ALBERTA,AB,55.1766,-118.8078,1,2004-02-01,
92101,ALBIAN MINE SITE,BITUMOUNT,ALBERTA,AB,57.2808,-111.5257,0,2004-01-01,2012-12-31
92102,MUSKEG RIVER,BITUMOUNT,ALBERTA,AB,57.24933,-111.5085,0,2010-01-01,2015-12-31
92201,LAMONT COUNTY,LAMONT,ALBERTA,AB,53.76036,-112.88017,0,2004-01-01,2022-10-31
92202,LAMONT,LAMONT,ALBERTA,AB,53.75733,-112.778,1,2022-11-08,
92301,REDWATER - INDUSTRIAL,REDWATER,ALBERTA,AB,53.84369,-113.09922,0,2004-01-01,2016-12-31
92401,ACME - GRAINGER,GRAINGER,ALBERTA,AB,51.48377,-113.33185,0,2005-06-09,2005-12-31
92601,BRETON,BRETON,ALBERTA,AB,53.0903,-114.46061,1,2005-04-01,
92801,DRAYTON VALLEY,DRAYTON VALLEY,ALBERTA,AB,53.220024,-114.984207,1,2005-02-02,
92901,EDSON,EDSON,ALBERTA,AB,53.593771,-116.395822,1,2005-01-01,
93001,EVERGREEN PARK,GRANDE PRAIRIE,ALBERTA,AB,55.1172,-118.7647,0,2005-03-01,2021-10-31
93005,DUNES,GRANDE PRAIRIE,ALBERTA,AB,55.10224,-118.77256,1,2022-01-01,
93101,GENESEE,GENESEE,ALBERTA,AB,53.3016,-114.2211,1,2005-01-01,
93202,HINTON - DRINNAN,HINTON,ALBERTA,AB,53.427301,-117.544067,1,2005-01-01,
93205,HINTON - HILLCREST,HINTON,ALBERTA,AB,53.392757,-117.584645,1,2022-09-01,
93301,JAMES RIVER - EAST,CREMONA,ALBERTA,AB,51.5437,-114.361,0,2005-01-06,2014-12-31
93401,LACOMBE,BEISEKER,ALBERTA,AB,51.2853,-113.4376,0,2005-10-06,2006-01-10
93501,LIBERTY PARK,PINE LAKE,ALBERTA,AB,52.1249,-113.4921,0,2005-02-03,2014-12-31
93601,LIMESTONE MOUNTAIN - RAVEN,ROCKY MOUNTAIN,ALBERTA,AB,51.93045,-115.42796,0,2005-04-07,2005-07-18
93701,MALMO,MIRROR,ALBERTA,AB,52.4302,-113.1045,0,2005-03-10,2005-11-08
93801,MEADOWS,WARBUG,ALBERTA,AB,53.53,-114.6361,1,2005-01-01,
93901,POWER,THORSBY,ALBERTA,AB,53.633,-114.4199,1,2005-01-01,
94001,SMOKY HEIGHTS,DEBOLT,ALBERTA,AB,55.402658,-118.280945,1,2005-04-01,
94101,SUNDRE TOWNSITE,MADDEN,ALBERTA,AB,51.4845,-114.3752,0,2005-01-01,2005-01-13
94201,WAGNER,SUNNYBROOK,ALBERTA,AB,53.3845,-114.4086,0,2005-01-01,2009-01-19
94202,WAGNER - 2,SUNNYBROOK,ALBERTA,AB,53.4243,-114.3749,1,2010-01-01,
94301,COLD LAKE - SOUTH,COLD LAKE,ALBERTA,AB,54.41401389,-110.2329389,1,2007-01-01,
94401,ST. LINA,ST LINA,ALBERTA,AB,54.2165,-111.5026,1,2010-01-01,
94500,JOUSSARD,JOUSSARD,ALBERTA,AB,55.34625,-115.89975,1,2018-05-29,
94601,ANZAC,ANZAC,ALBERTA,AB,56.44928,-111.03722,1,2006-01-23,
94701,JANVIER,JANVIER,ALBERTA,AB,55.903242,-110.749744,1,2022-01-01,
100103,NEW WESTMINSTER,METRO VANCOUVER - NEW WESTMINSTER,BRITISH COLUMBIA,BC,49.227045,-122.894487,1,2015-11-01,
100105,VANCOUVER - 739 WEST HASTINGS ST.,METRO VANCOUVER - VANCOUVER,BRITISH COLUMBIA,BC,49.28557,-123.11412,0,1974-01-01,1975-01-31
100106,VANCOUVER - 2294 WEST 10TH AVE.,METRO VANCOUVER - VANCOUVER,BRITISH COLUMBIA,BC,49.2625,-123.15611,0,1974-01-01,1986-01-22
100108,VANCOUVER - MARPOLE,METRO VANCOUVER - VANCOUVER,BRITISH COLUMBIA,BC,49.20972,-123.11389,0,1974-01-01,1993-05-06
100109,VANCOUVER - BC HYDRO,METRO VANCOUVER - VANCOUVER,BRITISH COLUMBIA,BC,49.28111,-123.12361,0,1975-02-01,1980-03-31
100110,BURNABY - KENSINGTON PARK,METRO VANCOUVER - BURNABY,BRITISH COLUMBIA,BC,49.279214,-122.970707,1,1975-03-01,
100111,PORT MOODY - ROCKY POINT PARK,METRO VANCOUVER - PORT MOODY,BRITISH COLUMBIA,BC,49.280893,-122.849291,1,1977-05-25,
100112,VANCOUVER - DOWNTOWN,METRO VANCOUVER - VANCOUVER,BRITISH COLUMBIA,BC,49.282272,-123.12188,1,1980-03-25,
100118,VANCOUVER - KITSILANO,METRO VANCOUVER - VANCOUVER,BRITISH COLUMBIA,BC,49.261672,-123.163472,0,1986-11-18,2014-05-21
100119,BURNABY - SOUTH,METRO VANCOUVER - BURNABY,BRITISH COLUMBIA,BC,49.21519,-122.985666,1,1995-01-01,
100120,BURNABY - CONFEDERATION PARK,METRO VANCOUVER - BURNABY,BRITISH COLUMBIA,BC,49.28333,-122.99778,0,1982-05-01,1999-08-31
100121,NORTH VANCOUVER - SECOND NARROWS,METRO VANCOUVER - NORTH VANCOUVER,BRITISH COLUMBIA,BC,49.301472,-123.020417,1,1982-05-01,
100122,PORT MOODY - ANMORE,METRO VANCOUVER - PORT MOODY,BRITISH COLUMBIA,BC,49.31111,-122.85833,0,1982-05-01,1998-01-06
100123,WEST VANCOUVER - LIONS GATE,METRO VANCOUVER - VANCOUVER,BRITISH COLUMBIA,BC,49.31806,-123.13472,0,1982-05-01,1993-09-30
100124,PORT MOODY - EAGLE RIDGE,METRO VANCOUVER - PORT MOODY,BRITISH COLUMBIA,BC,49.28472,-122.82389,0,1982-05-01,1999-08-18
100125,DELTA - NORTH,METRO VANCOUVER - DELTA,BRITISH COLUMBIA,BC,49.158348,-122.90173,1,1984-04-01,
100126,BURNABY - BURNABY MOUNTAIN,METRO VANCOUVER - BURNABY,BRITISH COLUMBIA,BC,49.279809,-122.922267,1,1984-06-01,
100127,SURREY - EAST,METRO VANCOUVER - SURREY,BRITISH COLUMBIA,BC,49.132928,-122.694224,1,1983-12-22,
100128,RICHMOND - SOUTH,METRO VANCOUVER - RICHMOND,BRITISH COLUMBIA,BC,49.141437,-123.108215,1,1986-07-01,
100129,PORT COQUITLAM - NORTH,METRO VANCOUVER - PORT COQUITLAM,BRITISH COLUMBIA,BC,49.28,-122.73417,0,1987-06-08,1999-12-31
100130,BURNABY - BURNABY LAKE,METRO VANCOUVER - BURNABY,BRITISH COLUMBIA,BC,49.2875,-122.96167,0,1986-05-02,1992-09-30
100131,NORTH VANCOUVER - SEYMOUR FALLS,METRO VANCOUVER - VANCOUVER,BRITISH COLUMBIA,BC,49.44,-122.97139,0,1986-01-01,2004-09-30
100132,NORTH VANCOUVER - MAHON PARK,METRO VANCOUVER - NORTH VANCOUVER,BRITISH COLUMBIA,BC,49.323994,-123.083496,1,1990-05-23,
100133,BURNABY - BURMOUNT,METRO VANCOUVER - BURNABY,BRITISH COLUMBIA,BC,49.266702,-122.935471,1,1990-03-18,
100134,RICHMOND - VANCOUVER INTL. AIRPORT,METRO VANCOUVER - RICHMOND,BRITISH COLUMBIA,BC,49.186265,-123.152422,1,1998-02-01,
100135,COQUITLAM - DOUGLAS COLLEGE,METRO VANCOUVER - COQUITLAM,BRITISH COLUMBIA,BC,49.288265,-122.79157,1,2000-10-01,
100136,BURNABY - CAPITOL HILL,METRO VANCOUVER - BURNABY,BRITISH COLUMBIA,BC,49.287869,-122.98563,1,1998-01-01,
100137,BURNABY - NORTH,METRO VANCOUVER - BURNABY,BRITISH COLUMBIA,BC,49.287483,-123.007975,1,1999-06-09,
100138,WEST VANCOUVER - HORSESHOE BAY,METRO VANCOUVER - WEST VANCOUVER,BRITISH COLUMBIA,BC,49.36861,-123.276741,1,2002-04-19,
100140,TSAWWASSEN,METRO VANCOUVER - DELTA,BRITISH COLUMBIA,BC,49.009877,-123.081997,1,2010-05-06,
100141,VANCOUVER - CLARK DR. ROADSIDE,METRO VANCOUVER - VANCOUVER,BRITISH COLUMBIA,BC,49.260267,-123.077776,1,2015-05-01,
100143,AGASSIZ - 7170 CHEAM AVE.,AGASSIZ,BRITISH COLUMBIA,BC,49.238008,-121.762264,1,2013-12-31,
100144,VANCOUVER - PANDORA PARK,METRO VANCOUVER - VANCOUVER,BRITISH COLUMBIA,BC,49.28229,-123.05761,1,2023-03-20,
100145,AGASSIZ - CENTENNIAL PARK,AGASSIZ,BRITISH COLUMBIA,BC,49.238356,-121.774783,1,2024-07-09,
100201,PRINCE GEORGE - POST OFFICE,PRINCE GEORGE,BRITISH COLUMBIA,BC,53.91891,-122.74461,0,1975-09-10,1979-10-18
100202,PRINCE GEORGE - PLAZA 400,PRINCE GEORGE,BRITISH COLUMBIA,BC,53.91472,-122.74194,1,1995-01-01,
100203,PRINCE GEORGE - BC RAIL WAREHOUSE,PRINCE GEORGE,BRITISH COLUMBIA,BC,53.87111,-122.74361,0,1996-09-28,2015-11-06
100205,PRINCE GEORGE - GLADSTONE SCHOOL,PRINCE GEORGE,BRITISH COLUMBIA,BC,53.85784722,-122.7614222,0,1998-01-01,2015-11-12
100209,PRINCE GEORGE - GLENVIEW SCHOOL,PRINCE GEORGE,BRITISH COLUMBIA,BC,53.99556,-122.77556,0,1999-01-01,2001-02-14
100210,PRINCE GEORGE - CBC TRANSMITTER,PRINCE GEORGE,BRITISH COLUMBIA,BC,53.90333,-122.70361,0,2005-01-01,2020-10-16
100211,PRINCE GEORGE - JAIL,PRINCE GEORGE,BRITISH COLUMBIA,BC,53.90800833,-122.7133444,1,2005-01-01,
100212,PRINCE GEORGE - MARSULEX ACID PLANT,PRINCE GEORGE,BRITISH COLUMBIA,BC,53.8416,-122.7344,0,2010-01-01,2020-12-31
100213,PRINCE GEORGE - DENICOLA RANCH,PRINCE GEORGE,BRITISH COLUMBIA,BC,53.9353,-122.6814,0,2010-07-21,2012-11-01
100214,PRINCE GEORGE - EXPLORATION PLACE,PRINCE GEORGE,BRITISH COLUMBIA,BC,53.9053,-122.7344,0,2010-07-21,2012-11-01
100301,VICTORIA - POLICE STATION,VICTORIA,BRITISH COLUMBIA,BC,48.42945,-123.36624,0,1974-01-01,1978-12-29
100302,VICTORIA - 1106 COOK ST.,VICTORIA,BRITISH COLUMBIA,BC,48.42361,-123.35278,0,1975-02-04,1983-03-31
100303,VICTORIA - 1250 QUADRA ST.,VICTORIA,BRITISH COLUMBIA,BC,48.425,-123.35833,0,1983-04-01,1997-10-29
100304,VICTORIA - TOPAZ,VICTORIA,BRITISH COLUMBIA,BC,48.441942,-123.363165,1,1998-05-01,
100307,COLWOOD - ROYAL ROADS UNIVERSITY,COLWOOD,BRITISH COLUMBIA,BC,48.43038,-123.46964,0,2001-01-01,2008-12-31
100308,COLWOOD - CITY HALL,COLWOOD,BRITISH COLUMBIA,BC,48.42369,-123.49432,1,2000-02-01,
100312,ESQUIMALT - GRAVING DOCK,ESQUIMALT,BRITISH COLUMBIA,BC,48.43694,-123.58833,0,2005-01-01,2013-09-17
100313,LANGFORD - DOGWOOD SCHOOL,LANGFORD,BRITISH COLUMBIA,BC,48.45306,-123.50333,0,2005-01-01,2009-06-30
100314,SAANICH - STELLYS CROSS RD.,SAANICH,BRITISH COLUMBIA,BC,48.58028,-123.44278,0,2003-09-16,2009-12-31
100315,VICTORIA - CHRISTOPHER POINT,VICTORIA,BRITISH COLUMBIA,BC,48.30944,-123.56194,0,2005-09-08,2008-12-31
100316,LANGFORD - LAKEWOOD ELEMENTARY SCHOOL,LANGFORD,BRITISH COLUMBIA,BC,48.46577,-123.50765,0,2007-02-13,2009-12-31
100317,VICTORIA - JAMES BAY DANIELS ELECTRONICS,VICTORIA,BRITISH COLUMBIA,BC,48.4208,-123.3828,0,2011-04-12,2013-12-12
100318,VICTORIA - JAMES BAY THE REEF,VICTORIA,BRITISH COLUMBIA,BC,48.42141667,-123.3841778,0,2014-12-31,2019-12-31
100401,KAMLOOPS - FEDERAL BUILDING,KAMLOOPS,BRITISH COLUMBIA,BC,50.67477,-120.334016,1,1978-04-01,
100402,KAMLOOPS - BROCKLEHURST,KAMLOOPS,BRITISH COLUMBIA,BC,50.7025,-120.394,0,1995-01-01,2011-06-02
100601,PENTICTON - 400 CARMI AVE.,PENTICTON,BRITISH COLUMBIA,BC,49.48472,-119.58333,0,1984-04-01,1987-05-31
100606,PENTICTON - DEBECK RD.,PENTICTON,BRITISH COLUMBIA,BC,49.4914,-119.5715,1,2024-12-01,
100701,KELOWNA - COLLEGE,KELOWNA,BRITISH COLUMBIA,BC,49.862336,-119.477367,0,1987-07-01,2019-06-12
100702,KELOWNA - 1000 KLO RD.,KELOWNA,BRITISH COLUMBIA,BC,49.86222,-119.4775,0,2006-09-14,2007-12-29
100703,KELOWNA - 1450 KLO RD.,KELOWNA,BRITISH COLUMBIA,BC,49.862119,-119.467461,1,2019-09-11,
100801,KEREMEOS,KEREMOS,BRITISH COLUMBIA,BC,49.20457,-119.83018,0,2008-08-01,2009-12-18
101001,ABBOTSFORD - AIRPORT - 1,ABBOTSFORD,BRITISH COLUMBIA,BC,49.03056,-122.37611,0,1982-08-01,1992-01-03
101002,ABBOTSFORD - DOWNTOWN,ABBOTSFORD,BRITISH COLUMBIA,BC,49.04944,-122.2925,0,1992-03-01,1998-09-15
101003,ABBOTSFORD - MILL LAKE,ABBOTSFORD,BRITISH COLUMBIA,BC,49.042579,-122.309821,1,1998-09-18,
101004,ABBOTSFORD - AIRPORT - 2,ABBOTSFORD,BRITISH COLUMBIA,BC,49.0325,-122.35306,0,2002-01-22,2010-04-15
101005,ABBOTSFORD - AIRPORT - 3,ABBOTSFORD,BRITISH COLUMBIA,BC,49.021554,-122.326523,1,2012-02-21,
101101,CHILLIWACK - AIRPORT,METRO VANCOUVER - CHILLIWACK,BRITISH COLUMBIA,BC,49.155848,-121.940279,1,1982-08-01,
101201,PITT MEADOWS - AIRPORT,METRO VANCOUVER - PITT MEADOWS,BRITISH COLUMBIA,BC,49.21278,-122.70778,0,1985-05-21,1996-03-06
101202,PITT MEADOWS - 18477 DEWDNY TRUNK RD.,METRO VANCOUVER - PITT MEADOWS,BRITISH COLUMBIA,BC,49.245233,-122.70889,1,1998-02-02,
101301,LANGLEY - CENTRAL,METRO VANCOUVER - LANGLEY,BRITISH COLUMBIA,BC,49.095613,-122.567104,1,1992-06-03,
101401,HOPE - AIRPORT,METRO VANCOUVER - HOPE,BRITISH COLUMBIA,BC,49.369887,-121.499122,1,1996-08-19,
101501,MAPLE RIDGE - GOLDEN EARS ELEM. SCHOOL,METRO VANCOUVER - MAPLE RIDGE,BRITISH COLUMBIA,BC,49.214939,-122.582057,1,1998-02-05,
101601,SQUAMISH - GOVERNMENT BUILDING,SQUAMISH,BRITISH COLUMBIA,BC,49.700098,-123.154216,0,1995-07-05,2015-12-31
101603,SQUAMISH - SQUAMISH ELEMETARY SCHOOL,SQUAMISH,BRITISH COLUMBIA,BC,49.70516,-123.15133,1,2015-12-15,
101701,QUESNEL - SENIOR SECONDARY,QUESNEL,BRITISH COLUMBIA,BC,52.981686,-122.493227,0,1995-01-01,2020-04-30
101702,QUESNEL - MAPLE DR.,QUESNEL,BRITISH COLUMBIA,BC,52.96306,-122.45056,0,1995-05-24,2015-06-17
101703,QUESNEL - PINECREST CENTRE,QUESNEL,BRITISH COLUMBIA,BC,53.00417,-122.5125,0,1995-06-09,2005-12-31
101704,QUESNEL - CORRELIEU SCHOOL,QUESNEL,BRITISH COLUMBIA,BC,52.9664,-122.5167,0,2000-11-22,2013-12-31
101705,QUESNEL - KINCHANT ST.,QUESNEL,BRITISH COLUMBIA,BC,52.97951,-122.49364,0,2020-05-07,2021-11-03
101706,QUESNEL - JOHNSTON AVE.,QUESNEL,BRITISH COLUMBIA,BC,52.96936,-122.4934,1,2021-11-05,
101801,CRESTON - PC SCHOOL,CRESTON,BRITISH COLUMBIA,BC,49.09440556,-116.50505,0,1995-01-01,2015-09-10
101803,CRESTON - PIPER FARMS,CRESTON,BRITISH COLUMBIA,BC,49.01194,-116.53333,0,2005-06-08,2009-07-01
101901,CRANBROOK - PR3,CRANBROOK,BRITISH COLUMBIA,BC,49.51,-115.75917,0,1995-01-01,1998-11-29
101904,CRANBROOK - MURIEL BAXTER,CRANBROOK,BRITISH COLUMBIA,BC,49.302582,-115.451314,1,2018-08-21,
102001,SATURNA,SATURNA ISLAND,BRITISH COLUMBIA,BC,48.77524,-123.12821,1,1991-05-28,
102102,NANAIMO - LABIEUX RD. - GOV BLDG,NANAIMO,BRITISH COLUMBIA,BC,49.20083,-123.99389,1,1998-01-01,
102103,NANAIMO - HARMAC CEDAR WOOBANK,NANAIMO,BRITISH COLUMBIA,BC,49.11301111,-123.8489972,1,2000-04-01,
102201,TRAIL - BUTLER PARK,TRAIL,BRITISH COLUMBIA,BC,49.096218,-117.697828,1,1994-12-16,
102202,TRAIL - WEST,TRAIL,BRITISH COLUMBIA,BC,49.0933,-117.6981,0,1998-01-01,2000-12-31
102210,TRAIL - COLUMBIA GARDENS AIRPORT,TRAIL,BRITISH COLUMBIA,BC,49.046405,-117.60711,1,2014-12-31,
102220,TRAIL - WARFIELD ELEMENTARY,TRAIL,BRITISH COLUMBIA,BC,49.0952,-117.7469,0,2014-12-31,2020-12-31
102225,TRAIL - WARFIELD HALEY PARK,TRAIL,BRITISH COLUMBIA,BC,49.09729,-117.74366,1,2022-10-27,
102230,TRAIL - BIRCHBANK GOLF COURSE,TRAIL,BRITISH COLUMBIA,BC,49.157855,-117.73312,1,2016-01-01,
102301,POWELL RIVER - CRANBERRY LAKE,POWELL RIVER,BRITISH COLUMBIA,BC,49.866905,-124.521819,0,1996-07-14,2018-01-31
102302,POWELL RIVER - WILDWOOD MOTORS,POWELL RIVER,BRITISH COLUMBIA,BC,49.886894,-124.558104,0,2001-01-01,2018-01-31
102303,POWELL RIVER - JAMES THOMSON SCHOOL,POWELL RIVER,BRITISH COLUMBIA,BC,49.889299,-124.5624,0,2009-01-01,2023-08-08
102401,SMITHERS - ST. JOSEPHS,SMITHERS,BRITISH COLUMBIA,BC,54.783308,-127.177324,0,1997-10-01,2018-12-07
102402,SMITHERS - MUHEIM MEMORIAL,SMITHERS,BRITISH COLUMBIA,BC,54.7785,-127.168542,1,2019-01-16,
102501,TERRACE - BC ACCESS CENTRE,TERRACE,BRITISH COLUMBIA,BC,54.51828,-128.59778,0,1997-11-01,2015-05-06
102503,TERRACE - SKEENA MIDDLE SCHOOL,TERRACE,BRITISH COLUMBIA,BC,54.52167,-128.6075,1,2015-01-07,
102601,PORT ALBERNI - TOWNSITE,PORT ALBERNI,BRITISH COLUMBIA,BC,49.23444,-124.81472,0,1997-09-16,2010-12-31
102602,PORT ALBERNI - ALBERNI ELEMENTARY,PORT ALBERNI,BRITISH COLUMBIA,BC,49.261014,-124.806628,1,2010-05-31,
102701,WILLIAMS LAKE - COLUMNEETZA SCHOOL,WILLIAMS LAKE,BRITISH COLUMBIA,BC,52.14428,-122.150391,1,1992-04-15,
102702,WILLIAMS LAKE - SKYLINE SCHOOL,WILLIAMS LAKE,BRITISH COLUMBIA,BC,52.1161,-122.132,0,2001-08-08,2007-11-30
102706,WILLIAMS LAKE - CRD LIBRARY,WILLIAMS LAKE,BRITISH COLUMBIA,BC,52.13083,-122.14222,0,2002-07-26,2014-06-17
102801,CAMPBELL RIVER - ELK FALLS DOGWOOD,CAMPBELL RIVER,BRITISH COLUMBIA,BC,50.018425,-125.24844,1,1995-12-08,
102802,CAMPBELL RIVER - TYEE SPIT,CAMPBELL RIVER,BRITISH COLUMBIA,BC,50.04789,-125.25476,0,1998-01-01,2009-12-31
103011,ELKFORD -  ROCKY MOUNTAIN ELEMENTARY SCHOOL,ELKFORD,BRITISH COLUMBIA,BC,50.00779,-114.93342,1,2024-01-01,
103021,SPARWOOD - CENTENNIAL SQUARE,SPARWOOD,BRITISH COLUMBIA,BC,49.73279,-114.88766,1,2024-01-01,
103202,GOLDEN - HOSPITAL HELIPAD,GOLDEN,BRITISH COLUMBIA,BC,51.29749722,-116.9668528,1,1999-02-11,
103203,GOLDEN - CPR,GOLDEN,BRITISH COLUMBIA,BC,51.27,-116.93083,0,2005-01-01,2009-12-31
103204,GOLDEN - GOLF COURSE,GOLDEN,BRITISH COLUMBIA,BC,51.3325,-117.00667,0,2005-01-01,2006-11-22
103205,GOLDEN - TOWNSITE,GOLDEN,BRITISH COLUMBIA,BC,51.2958,-116.972,0,2005-01-01,2007-02-28
103302,NELSON - KUTENAI PLACE,NELSON,BRITISH COLUMBIA,BC,49.49055,-117.295381,0,2005-03-23,2015-04-23
103402,REVELSTOKE - MT. BEGBIE SCHOOL,REVELSTOKE,BRITISH COLUMBIA,BC,50.9918,-118.1881333,0,2002-02-15,2012-07-16
103502,CASTLEGAR - ZINIO PLACE,CASTLEGAR,BRITISH COLUMBIA,BC,49.317698,-117.661527,1,2011-07-11,
103602,MISSION,MISSION,BRITISH COLUMBIA,BC,49.14149,-122.311078,1,2014-07-31,
103701,CHETWYND,CHETWYND,BRITISH COLUMBIA,BC,55.6699,-121.632,0,2006-12-22,2020-01-28
103702,PINE RIVER - GAS PLANT,PINE RIVER,BRITISH COLUMBIA,BC,55.57453056,-121.9212472,0,2005-02-01,2021-12-31
103703,PINE RIVER - HASLER - 1,CHETWYND,BRITISH COLUMBIA,BC,55.60376,-121.96866,0,2005-01-01,2008-12-31
103704,PINE RIVER - HASLER - 2,PINE RIVER,BRITISH COLUMBIA,BC,55.6056,-121.9722,0,2010-01-06,2021-12-31
103901,KITIMAT - RIVERLODGE,KITIMAT,BRITISH COLUMBIA,BC,54.05389,-128.671436,1,1998-08-11,
103902,KITIMAT - HAUL ROAD,KITIMAT,BRITISH COLUMBIA,BC,54.029194,-128.70269,0,2005-01-01,2022-12-31
103903,KITIMAT - RAIL,KITIMAT,BRITISH COLUMBIA,BC,54.06111,-128.68722,0,2005-01-01,2010-06-25
103904,KITIMAT - WHITESAIL,KITIMAT,BRITISH COLUMBIA,BC,54.066909,-128.639131,1,2005-01-01,
103905,KITIMAT - HAISLA VILLAGE,KITIMAT,BRITISH COLUMBIA,BC,53.973228,-128.650768,1,2010-08-23,
103906,KITIMAT - RIO TINTO ALCAN PLANT,KITIMAT,BRITISH COLUMBIA,BC,54.0194,-128.7042,0,2010-09-07,2015-01-01
104003,VERNON - SCIENCE CENTRE,VERNON,BRITISH COLUMBIA,BC,50.260617,-119.270723,1,2002-10-15,
104101,GRAND FORKS - CITY HALL,GRAND FORKS,BRITISH COLUMBIA,BC,49.031168,-118.439088,1,2007-01-01,
104301,TAYLOR - TOWNSITE,TAYLOR,BRITISH COLUMBIA,BC,56.150186,-120.686985,1,1998-01-01,
104302,TAYLOR - SOUTH HALL,TAYLOR,BRITISH COLUMBIA,BC,56.105871,-120.662779,1,2005-01-01,
104303,BESSBOROUGH - 237 RD.,BESSBOROUGH,BRITISH COLUMBIA,BC,55.7919,-120.4836,1,2016-01-01,
104304,FARMINGTON - COMMUNITY HALL,FARMINGTON,BRITISH COLUMBIA,BC,55.913779,-120.533749,0,2014-01-28,2021-12-31
104305,TOMSLAKE - 197 RD. EAST,TOMSLAKE,BRITISH COLUMBIA,BC,55.62684722,-120.0741028,0,2014-01-01,2015-01-01
104401,PORT EDWARD - PACIFIC,PORT EDWARD,BRITISH COLUMBIA,BC,54.22083,-130.28972,0,1999-01-01,2005-03-16
104501,QUADRA ISLAND - LIGHTHOUSE,QUADRA ISLAND,BRITISH COLUMBIA,BC,49.99972,-125.19444,0,1999-01-01,2009-12-31
104601,TELKWA,TELKWA,BRITISH COLUMBIA,BC,54.691482,-127.054334,0,1999-01-02,2015-05-08
104701,PRINCE RUPERT - GALLOWAY RAPIDS,PRINCE RUPERT,BRITISH COLUMBIA,BC,54.25972,-130.26806,0,1999-01-01,2004-12-20
104801,DUNCAN - DEYKIN AVE.,DUNCAN,BRITISH COLUMBIA,BC,48.80255,-123.646402,1,1999-01-01,
104803,DUNCAN - CAIRNSMORE,DUNCAN,BRITISH COLUMBIA,BC,48.784854,-123.715846,0,2009-07-28,2018-01-15
104804,DUNCAN - COLLEGE ST.,DUNCAN,BRITISH COLUMBIA,BC,48.786114,-123.717307,1,2018-01-20,
105001,WHISTLER - MEADOW PARK,WHISTLER,BRITISH COLUMBIA,BC,50.144285,-122.960402,1,2001-06-01,
105101,HOUSTON - FIREHALL,HOUSTON,BRITISH COLUMBIA,BC,54.398594,-126.646833,1,2000-01-01,
105201,BURNS LAKE - FIRE CENTRE,BURNS LAKE,BRITISH COLUMBIA,BC,54.230731,-125.764354,1,2000-01-01,
105301,LANGDALE - LANGDALE ELEMENTARY,LANGDALE,BRITISH COLUMBIA,BC,49.438848,-123.479185,1,1998-01-01,
105401,BOSTON BAR - RCMP STATION,BOSTON BAR,BRITISH COLUMBIA,BC,49.86583,-121.4425,0,2001-01-01,2001-12-31
105501,FORT ST. JOHN - NP CULTURAL CENTRE,FORT ST. JOHN,BRITISH COLUMBIA,BC,56.245855,-120.848363,0,2001-03-08,2015-10-15
105503,DOIG RIVER - CULTURAL CENTRE,DOIG RIVER,BRITISH COLUMBIA,BC,56.5781,-120.4975,0,2014-01-01,2015-01-01
105504,FORT ST. JOHN - LEARNING CENTRE,FORT ST. JOHN,BRITISH COLUMBIA,BC,56.24473,-120.8561,1,2014-11-06,
105601,OSOYOOS - SHAW GARDENS,OSOYOOS,BRITISH COLUMBIA,BC,49.0375,-119.43833,0,2001-08-01,2002-09-09
105604,OSOYOOS - CANADA CUSTOMS,OSOYOOS,BRITISH COLUMBIA,BC,49.05584,-119.50792,0,2004-11-01,2012-05-01
106101,VALEMOUNT - FIREHALL,VALEMOUNT,BRITISH COLUMBIA,BC,52.832459,-119.269821,1,2015-09-11,
106401,ROBSON,ROBSON,BRITISH COLUMBIA,BC,49.337031,-117.698275,0,2005-01-01,2012-02-29
106501,FORT NELSON - BRUCKER RANCH,FORT NELSON,BRITISH COLUMBIA,BC,58.57778,-122.58944,0,2005-01-01,2005-09-19
106502,FORT NELSON - CHALO SCHOOL,FORT NELSON,BRITISH COLUMBIA,BC,58.74806,-122.66222,0,2005-01-01,2009-05-15
106503,FORT NELSON - TOWNSITE,FORT NELSON,BRITISH COLUMBIA,BC,58.81028,-122.70417,0,2005-01-01,2005-09-20
106700,CROFTON - ESCARPMENT WAY,CROFTON,BRITISH COLUMBIA,BC,48.838,-123.6552,0,2009-01-01,2013-12-31
106701,CROFTON - SUBSTATION,CROFTON,BRITISH COLUMBIA,BC,48.874529,-123.653929,0,2009-01-01,2020-12-31
106702,1821 ESCARPMENT WAY,CROFTON,BRITISH COLUMBIA,BC,48.849649,-123.637031,0,2014-02-13,2018-12-20
106705,CROFTON - CROFTON ELEMENTARY,CROFTON,BRITISH COLUMBIA,BC,48.86,-123.64389,1,2019-04-04,
106800,UCLUELET - AMPHITRITE POINT,UCLUELET,BRITISH COLUMBIA,BC,48.921799,-125.541209,0,2010-05-13,2017-07-18
106900,VANDERHOOF - BAM,VANDERHOOF,BRITISH COLUMBIA,BC,54.016516,-124.005856,1,2009-08-12,
107000,PORT ALICE - RUMBLE BEACH HOSPITAL,PORT ALICE,BRITISH COLUMBIA,BC,50.425418,-127.488513,0,2009-02-03,2015-06-23
107001,PORT ALICE - LAKE ROAD,PORT ALICE,BRITISH COLUMBIA,BC,50.377968,-127.435293,0,2009-01-01,2015-06-23
107100,COURTENAY - COURTENAY ELEMENTARY SCHOOL,COURTENAY,BRITISH COLUMBIA,BC,49.682603,-124.996222,1,2010-05-13,
119001,WHITEHORSE - FEDERAL BUILDING,WHITEHORSE,YUKON,YT,60.72028,-135.05472,0,1974-01-01,1991-05-21
119002,WHITEHORSE - ANDREW PHILIPSEN LAW CENTRE,WHITEHORSE,YUKON,YT,60.72028,-135.05472,0,1995-10-01,2001-07-16
119003,WHITEHORSE - NAPS HOUSE,WHITEHORSE,YUKON,YT,60.718609,-135.049193,0,2001-07-24,2012-01-01
119004,WHITEHORSE - STEELE ST.,WHITEHORSE,YUKON,YT,60.71972,-135.05875,1,2011-09-23,
129001,YELLOWKNIFE - POST OFFICE,YELLOWKNIFE,NORTHWEST TERRITORIES,NT,62.455,-114.37167,0,1999-12-26,2005-01-22
129002,YELLOWKNIFE - CITY HALL,YELLOWKNIFE,NORTHWEST TERRITORIES,NT,62.45444,-114.37639,0,1996-01-01,2002-08-31
129003,YELLOWKNIFE - SIR JOHN FRANKLIN HIGH SCHOOL,YELLOWKNIFE,NORTHWEST TERRITORIES,NT,62.45207,-114.364,1,2003-01-01,
129102,NORMAN WELLS - ECC REGIONAL OFFICE,NORMAN WELLS,NORTHWEST TERRITORIES,NT,65.27926,-126.813057,1,2006-01-01,
129103,FORT LIARD - AIRPORT,FORT LIARD,NORTHWEST TERRITORIES,NT,60.235937,-123.472869,0,2006-01-01,2012-12-31
129202,INUVIK - SAMUEL HEARNE SCHOOL,INUVIK,NORTHWEST TERRITORIES,NT,68.360052,-133.727206,0,2006-01-01,2011-12-31
129203,INUVIK - BOMPAS RD.,INUVIK,NORTHWEST TERRITORIES,NT,68.35702037,-133.7140565,1,2011-01-01,
129302,IQALUIT - WILDLIFE SERVICES GARAGE,IQALUIT,NUNAVUT,NU,63.749194,-68.520925,0,2006-07-28,2017-11-15
129303,IQALUIT - WATERLAB,IQALUIT,NUNAVUT,NU,63.751619,-68.522433,1,2013-12-31,
129401,ALERT,ALERT,NUNAVUT,NU,82.45083,-62.5056,1,2003-06-19,
129501,SNARE RAPIDS,SNARE RAPIDS,NORTHWEST TERRITORIES,NT,63.50825,-116.00867,1,2005-11-30,
129601,FORT SMITH - CONIBEAR CRES.,FORT SMITH,NORTHWEST TERRITORIES,NT,60.00455,-111.893241,1,2015-01-01,
129602,WOOD BUFFALO NATIONAL PARK,WOOD BUFFALO NATIONAL PARK,NORTHWEST TERRITORIES,NT,60.1465,-113.63769,1,2017-01-01,
129701,FORT SIMPSON - HELIPORT,FORT SIMPSON,NORTHWEST TERRITORIES,NT,61.8628,-121.353,1,2023-07-23,
