NAPS ID,City,P/T,Location,Latitude,Longitude,Elevation,ID,Minimum,Maximum,January,February,March,April,May,June,July,August,September,October,November,December,Mean,Standard Deviation
010102,St. John's,NL,354 Water Street,47.56038,-52.71147,7,1HR,0,10.5,0.5,0.4,0.4,0.7,0.8,1.1,1.6,2,1.1,1,0.4,0.7,0.9,0.765258438
010401,Mount Pearl,NL,Old Placentia Road,47.50513,-52.79476,135,1HR,0,7.9,1.2,1,0.9,1,1.1,1.1,1.1,0.8,0.7,0.8,0.7,0.8,0.9,0.723909693
010501,Grand Falls - Windsor,NL,Scott Avenue,48.92696,-55.65966,62,1HR,0,2.9,0.4,0.3,0.5,0.7,0.5,0.4,0.7,0.6,0.3,0.5,0.6,0.4,0.5,0.23679824
010602,Corner Brook,NL,Macpherson Ave,48.95224,-57.92207,100,1HR,0,11.8,0.6,0.4,0.4,,,0.8,0.8,0.8,0.8,0.6,0.7,0.7,,
010901,Burin,NL,18 Hwy 220 (Main St.),47.09899,-55.19852,1,1HR,0,1,0.1,0.1,0.1,0.1,0.1,0.1,0.1,0.1,0,0.1,0.1,0.1,0.1,0.07561627
011002,Labrador City,NL,317 Hudson Drive,52.945487,-66.910306,558,1HR,0,62.4,0.4,0.5,1.7,0.5,0.2,0.6,0.3,0.3,0.3,0.9,0.9,0.6,0.6,2.123453184
020104,Charlottetown,PE,3 Brighton Road,46.233,-63.13667,21,1HR,0,16.3,0.6,0.3,0.3,0.2,0.2,0.1,0.1,0.1,0,0.1,,0.3,0.2,0.488131063
030113,Halifax,NS,1672 Granville Street,44.64711,-63.57366,28,1HR,0,23.2,0.4,0.1,0.2,0.2,0.2,0.2,0.2,0.3,0.4,0.3,0.6,0.8,0.3,0.73132845
030118,Halifax,NS,1649 Barrington Street,44.646425,-63.573383,18,1HR,0,5.2,,,,,,,,,,,,,,
030120,Dartmouth,NS,341 Cherrybrook Road,44.7198,-63.48076,68,1HR,0,7.3,0.3,0.3,0.4,0.2,0.2,0.3,0.3,0.3,0.2,0.1,0.3,1.1,0.3,0.550831263
030201,Port Hawkesbury,NS,18 Embree Street,45.614161,-61.362356,14,1HR,0,61.3,0.6,0.7,0.4,0.9,1.4,1.3,1.3,0.6,1.1,0.7,0.5,0.6,0.8,2.913641748
030310,Sydney,NS,71 Welton Street,46.14222,-60.17252,27,1HR,0,85.1,0.4,0.4,1.5,1,0.5,0.4,0.2,0.3,0.6,0.3,0.4,0.3,0.5,2.639112534
030901,Pictou,NS,91 Beeches Road,45.681744,-62.696575,12,1HR,0,32.6,0.3,0.5,0.5,0.6,0.3,0.2,0.1,0.2,0.3,0.3,0.4,0.8,0.4,1.218461787
040203,Saint John,NB,Mountain Road,45.308762,-66.008384,41,1HR,0,64.2,0.6,0.8,0.4,2.7,4.1,4,4.4,3.6,2.3,0.3,0.2,0.4,2,5.119482228
040207,Saint John,NB,476 Lancaster Avenue W.,45.252898,-66.080065,59,1HR,0,41.2,1.1,0.7,0.9,0.5,0.3,0.8,0.2,0.3,0.3,0.9,1.1,2.5,0.8,2.438954943
040208,Saint John,NB,111 Champlain Drive,45.291218,-66.00305,47,1HR,0,115.4,1.9,1.3,0.4,1.5,1.1,0.4,0.3,0.5,1.1,0.4,2,1.4,1,4.371372013
040209,Saint John,NB,8 Castle Street,45.28028,-66.05611,41,1HR,0,46.7,0.6,0.5,0.4,0.7,0.5,0.2,0.1,0.1,0.2,0.1,0.7,0.3,0.4,1.526105876
041501,Edmundston,NB,19 Queen St.,47.363195,-68.322302,159,1HR,0,111.8,2.8,2.1,2,1.8,3.4,3.2,2.8,1.6,1.8,2.6,1.7,4.6,2.5,7.377838179
050103,Montréal,QC,"1050 A, Boul. Saint-Jean-Baptiste",45.641026,-73.499682,19,1HR,0,43.5,1.4,0.9,1.3,1.2,1.1,1.3,0.9,1,0.7,1.4,1.3,0.9,1.1,2.597923973
050122,Brossard,QC,En Face Du 8400 Avenue Sorbonne,45.448663,-73.480819,17,1HR,0,14.6,0.3,0.3,0.2,0.2,0.4,0.5,0.3,0.2,0.2,0.1,0.1,0.1,0.2,0.477093297
050126,Montréal,QC,20965 Ch. Sainte-Marie,45.426542,-73.928929,39,1HR,0,12.8,0.7,0.5,0.3,0.3,0.4,0.3,0.3,0.3,0.3,0.3,0.3,0.5,0.4,0.621057252
050133,Montréal,QC,"8200a Rue Chenier, Arena Chenier",45.60176,-73.541992,41,1HR,0,20.9,1.2,0.7,0.8,0.3,0.6,0.4,0.4,0.5,0.5,0.3,0.2,0.5,0.5,1.162056224
050134,Montréal,QC,2580 Saint-Joseph Est,45.54271,-73.57176,53,1HR,0,25,1.3,1.1,0.9,0.7,1,0.7,0.7,0.8,0.8,0.5,0.3,0.4,0.8,1.191820542
050136,Montréal,QC,75 Rue Ontario Est,45.512189,-73.566842,32,1HR,0,18.5,0.5,0.5,0.3,0.2,0.7,0.4,0.3,0.2,0.3,0.1,0.1,0.1,0.3,0.815252461
050204,Gatineau,QC,"255 St-Redempteur, Hull",45.435987,-75.723429,62,1HR,0,6.9,0.1,0.1,0.1,0.1,0.1,0.1,0.1,0,0.1,0.1,0.1,0.1,0.1,0.186051666
050308,Québec,QC,600 Rue Des Sables,46.821177,-71.220495,8,1HR,0,6,0.3,0.2,0.2,0.2,0.3,0.2,0.3,,0.2,0.4,0.4,0.5,0.3,0.374827836
050604,Rouyn-Noranda,QC,1570 Rue Paradis,48.234087,-78.982778,289,1HR,0,152.8,2,1.3,1.4,1.2,1.1,0.5,0.9,1,1.4,2,1.9,1.5,1.4,6.066013644
050803,Trois Rivières,QC,Rue Whitehead,46.357175,-72.546187,12,1HR,0,10,0.2,0.3,0.3,0.2,0.3,0.2,0.2,0.2,0.2,0.1,0.3,0.2,0.2,0.409152309
050902,Saguenay,QC,"2885 Berthier (Arvida), Jonquiere",48.43389,-71.18454,93,1HR,0,117.9,4.8,4.5,5.6,4.7,5,4.2,3.6,3.1,6,6.8,9.7,5.7,5.3,11.91010825
054401,Saint-Anicet,QC,1128 De La Guerre,45.120624,-74.2896,50,1HR,0,29,1,0.6,0.5,,0.5,0.3,0.2,0.2,0.3,0.5,0.3,0.3,0.4,1.367817572
055702,Lévis,QC,200 Rue Des Commandeurs,46.806029,-71.167506,106,1HR,0,11.9,0.4,0.5,0.2,0.3,0.3,0.5,0.4,0.3,0.2,0.2,0.3,0.4,0.3,0.482305303
060104,Ottawa,ON,Rideau & Wurtemburg,45.43433,-75.676,68,1HR,0,3.3,0.3,0.3,0.2,0.1,0.2,0.1,0.1,0.1,0.1,0.2,0.2,0.2,0.2,0.182067836
060204,Windsor,ON,467 University Ave. West,42.315778,-83.043667,176,1HR,-0.2,27.1,2.1,0.8,0.4,0.5,0.8,0.7,0.3,0.4,0.1,0.4,0.2,0.3,0.6,1.908310424
060211,Windsor,ON,College & South St. / 928 South St.,42.292889,-83.073139,180,1HR,-0.2,27.1,1.1,0.7,0.5,0.6,0.7,0.9,0.7,0.9,0.4,0.6,0.8,0.6,0.7,1.411867357
060430,Toronto,ON,125 Resources Road,43.709444,-79.5435,141,1HR,-0.1,10.2,1,0.5,0.2,0.3,0.4,0.3,0.3,0.2,0.1,0.2,0.2,0.2,0.3,0.593269078
060438,Toronto,ON,401w - 125 Resources Rd.,43.711106,-79.543425,139,1HR,0,9,0.3,0.3,0.3,0.3,0.4,0.4,0.4,0.2,0.2,0.3,0.3,0.2,0.3,0.451616221
060440,Toronto,ON,4905 Dufferin Street,43.78042,-79.46752,,1HR,0,22,0.4,0.3,0.2,0.2,0.3,0.3,0.3,0.2,0.2,0.3,0.2,0.1,0.3,0.56764007
060512,Hamilton,ON,Elgin & Kelly,43.25778,-79.86167,90,1HR,0,136.9,1.3,2.6,3.9,5.3,15.8,11.3,5.9,3.6,5.3,2.1,1.2,1.9,5,11.50203808
060513,Hamilton,ON,Vickers Rd. & East 18th. St.,43.22942,-79.86278,209,1HR,0,113.2,1.1,0.9,1.9,2.3,7.4,4.3,2.9,2,1.9,1.3,0.7,,2.4,5.538138321
060610,Sudbury,ON,155 Elm Street,46.49194,-81.00311,271,1HR,0,52.3,1.5,1.7,1.1,2,0.9,1,1.2,0.7,1,1.1,1.2,1.2,1.2,3.292748612
060709,Sault Ste. Marie,ON,"443 Northern Ave., Sault College",46.53319,-84.30992,244,1HR,0,64,1.1,1.2,0.6,0.8,1.4,0.6,0.9,0.7,0.3,0.5,0.5,1,0.8,2.785163912
061007,Sarnia,ON,1300 Tashmoo Ave./ Lasalle Line,42.912545,-82.416816,180,1HR,-0.2,96.5,1.6,0.8,2,1.8,3.7,2.8,1.6,1,0.7,0.8,0.7,0.6,1.5,4.677654909
061009,Sarnia,ON,700 Christina St. N.,42.990263,-82.395341,182,1HR,-0.1,65,4,2.6,0.7,1,3.6,1.5,1.7,2,1.4,2,1,1.5,1.9,5.851885197
062601,Simcoe,ON,Experimental Farm,42.85685,-80.26964,236,1HR,-0.6,11.9,0.3,0.4,0.4,0.5,1.2,1.2,1.3,1.2,0.5,-0.2,-0.3,-0.4,0.5,0.80789075
080111,Regina,SK,1621 Albert St.,50.4527,-104.616,585,1HR,0,22.7,0.2,0.1,0.2,0.2,0.4,0.3,0.2,0.5,0.4,0.4,0.2,0.6,0.3,0.638002557
080211,Saskatoon,SK,511 1st Avenue North,52.13613,-106.66293,483,1HR,0,4.5,0.2,0.2,0.2,0.2,0.1,0.1,0.1,0.1,0.1,0.1,0.1,0.1,0.1,0.154079275
080402,Prince Albert,SK,63 - 12th Street East,53.201694,-105.75203,436,1HR,0,1.5,0.3,0.2,0.2,0.2,0.1,0.1,0.1,0.2,0.3,0.2,0.4,0.6,0.2,0.184058927
080502,Estevan,SK,528 1a Street,49.13235,-102.98499,563,1HR,0,125,1.5,2.7,2.5,2.2,1.4,0.9,0.8,1.6,0.9,1.3,0.5,1.9,1.5,5.157919375
081001,Swift Current,SK,1200 Begg St. W,50.285833,-107.81689,753,1HR,0,4.9,0.4,0.4,0.4,0.2,0.2,0.1,0.1,0.1,0.1,0.1,0.1,0.2,0.2,0.354024416
082002,Buffalo Narrows,SK,Buffalo Narrows Forest Protection Base,55.834566,-108.403332,425,1HR,0,5,0.5,0.4,0.2,0.5,0.5,0.4,0.4,0.2,0.2,0.2,0.2,0.3,0.3,0.258144301
090120,Edmonton,AB,6240 113 Street,53.50022,-113.526056,681,1HR,0,22,0.5,0.5,0.9,0.4,0.3,0.2,0.4,0.4,0.2,0.3,0.2,0.3,0.4,1.057385894
090121,Edmonton,AB,17 Street & 105 Avenue,53.54823,-113.36811,670,1HR,0,69,0.5,0.8,1.3,0.7,1.2,1,1.4,1.5,0.9,0.6,0.6,0.5,0.9,2.621476331
090133,Edmonton,AB,13915 115 Avenue Nw,53.564411,-113.562583,670,1HR,0,20,0.4,0.5,1,0.7,0.4,0.4,0.4,0.4,0.2,0.3,0.2,0.3,0.4,0.866455783
090134,Sherwood Park,AB,Ottwell House Park,53.532092,-113.320983,709,1HR,0,64,1.4,1.9,1.3,1.1,1.1,1.2,1.5,1.8,1.1,1.5,0.7,1.1,1.3,3.091753667
090135,Ardrossan,AB,3 Avenue,53.554691,-113.144905,707,1HR,0,32,1,1.6,0.9,0.5,0.2,0.5,,,0.3,0.7,0.8,0.8,,
090229,Calgary,AB,4700 110 Avenue Se,50.955122,-113.969742,1032,1HR,0,9,0.6,0.5,0.4,0.2,0.2,0.2,0.5,1,0.1,0.5,0.4,0.5,0.4,0.730211294
090302,Red Deer,AB,73 Street & Riverside Drive,52.29867,-113.79352,858,1HR,0,6,0.4,0.4,0.3,0.2,0.1,0,0.1,0.1,0,0.1,0,0.1,0.2,0.446792019
090304,Red Deer,AB,11 Lancaster Drive,52.24095,-113.765439,907,1HR,0,12,0.8,0.6,0.7,0.4,0.2,0.2,0.3,0.4,0.1,0.4,0.6,0.8,0.4,0.675347014
090502,Lethbridge,AB,28 Street & 12 Avenue N.,49.71621,-112.8006,918,1HR,0,3,0,0,0,0,0,0,0,0,0,0,0,0,0,0.16759991
090601,Fort Saskatchewan,AB,9209a-96 Ave,53.69874,-113.22285,628,1HR,0,20,0.3,0.6,0.6,0.2,0.3,0.4,0.5,0.6,0.3,0.4,0.3,0.4,0.4,1.112775185
090603,Fort Saskatchewan,AB,100 Ave East Of 109st.,53.71622,-113.19994,620,1HR,0,28,0.4,0.7,0.7,0.4,0.5,0.3,0.5,0.5,0.7,0.3,0.3,0.5,0.5,1.485275553
090607,Gibbons,AB,Behind 4807 50 Ave,53.827241,-113.327174,673,1HR,0,45,0.6,0.5,1.1,0.6,0.2,0.5,0.5,0.3,0.5,0.5,0.3,0.9,0.6,1.439959516
090608,Redwater,AB,4704-49 Ave,53.95183,-113.105857,627,1HR,0,33,0.3,0.5,0.6,0.5,0.3,0.4,0.4,0.2,0.2,0.5,0.1,0.4,0.4,1.331038586
090609,Bruderheim,AB,5321 48 Street,53.805629,-112.925851,630,1HR,0,47,0.7,1.4,0.5,0.6,0.6,1.1,0.9,1.4,0.5,1.3,1,1.3,0.9,1.872541657
090701,Fort Mcmurray,AB,Macdonald Dr.,56.73341,-111.39047,260,1HR,0,43,0.5,0.6,0.8,0.4,0.2,0.2,0.5,0.8,0.5,0.3,0.2,0.4,0.4,1.571070207
090702,Fort Mcmurray,AB,Timberlea Subdivision,56.75139,-111.47662,355,1HR,0,32,1.1,0.9,1.4,0.6,0.3,0.5,0.8,0.6,0.7,0.6,0.6,0.7,0.7,2.037169851
090801,Fort Mckay,AB,Main Street,57.18941,-111.6405,268,1HR,0,43,0.9,0.5,1.7,0.7,0.8,0.5,0.6,0.4,0.4,1.3,0.4,0.7,0.8,2.53109122
090802,Fort Mckay,AB,Lower Camp,57.02681,-111.5007,247,1HR,0,124,0.9,1.6,1.9,2.4,2.7,2.3,1.7,1.8,3.1,3.4,1.8,1.2,2.1,6.257366406
090805,Fort Mckay,AB,Buffalo Viewpoint,56.99647,-111.59295,336,1HR,0,100,0.4,0.4,0.5,0.8,1.2,1.2,0.7,0.6,1.1,0.8,0.3,0.4,0.7,3.374804389
090806,Fort Mckay,AB,4-13-094-11 W4,57.1492,-111.6424,342,1HR,0,49,0.8,0.3,1.3,0.7,0.8,0.5,0.6,0.4,0.6,1.1,0.6,0.7,0.7,2.32809429
090807,Wapasu,AB,Located Oustide Approval Boundaries At Pti Camp,57.26176,-111.037,429,1HR,0,36,1.3,1.1,0.8,0.3,0.7,0.8,0.6,0.8,0.6,0.8,0.5,2.2,0.9,2.261343929
090808,Conklin,AB,1-33-076-08 W4,55.621408,-111.17269,673,1HR,0,13,0.8,0.5,0.5,0.4,0.2,0.2,0.1,0.1,0.1,0.3,0.4,0.6,0.3,0.751649125
091101,Elk Island,AB,National Park,53.68238,-112.86812,714,1HR,0,26,0.6,0.9,0.5,0.3,0.3,0.3,0.4,0.7,0.3,0.5,0.6,0.6,0.5,1.282352612
091301,Tomahawk,AB,Se 2 51 6 W5,53.37255,-114.76835,789,1HR,0,13,0.3,0.4,0.6,0.3,0.1,0.1,0.2,0.1,0.2,0.2,0,0.1,0.2,0.800377126
091401,Violet Grove,AB,Se 17 48 08 W5,53.14222,-115.13806,1000,1HR,0,23,0.4,0.4,0.4,0.3,0.1,0,0.1,0.1,0.1,0.1,0.1,0.2,0.2,0.758037743
091501,Beaverlodge,AB,Beaverlodge Research Farm,55.19634,-119.39682,762,1HR,0,18.8,0.4,0.5,0.8,0.5,0.1,0.1,0.2,0.3,0.1,0,0.1,0.4,0.3,0.627091748
091601,Carrot Creek,AB,Se 31 53 13 W5,53.621062,-115.869155,800,1HR,0,6,0.3,0.3,0.4,0.1,0,0,0,0,0,0,0,0,0.1,0.435742149
091701,Steeper,AB,Ne 12 48 22 W5,53.1325,-117.09111,1400,1HR,0,19,0,0.1,0.2,0.2,0,0,0,0,0.1,0,0,0,0.1,0.392509012
091801,Fort Chipewyan,AB,Fort Chipewyan,58.70879,-111.17683,238,1HR,0,36,1,0.1,0.1,0,0,0,0,0,0.1,0.2,0.2,0.3,0.2,0.999018327
091901,Caroline,AB,16-30-034-5 W5,51.94687,-114.69744,1140,1HR,0,15,1.1,1.2,1.1,1.1,1.2,1.1,1.2,1.2,1.1,1.2,1.2,1.1,1.2,0.677806814
092001,Grande Prairie,AB,10327 - 107 Avenue,55.1766,-118.8078,658,1HR,0,16,0.7,0.8,0.6,0.5,0,0,0.2,0.1,,0.1,0.2,0.6,0.4,0.678223345
092201,Lamont,AB,Rge Rd 203 & Twp Rd 550,53.76036,-112.88017,767,1HR,0,41,1.1,1.5,0.9,0.5,0.5,1,1,1.4,0.4,1.4,1.1,1.6,1,1.95766054
092601,Breton,AB,Hwy 20,53.0903,-114.46061,900,1HR,0,17,0.4,0.3,0.6,0.3,0.2,0.2,0.1,0.4,0.1,0.1,0.3,0.1,0.3,0.856255318
092901,Edson,AB,7 Ave,53.593771,-116.395822,894,1HR,0,5,0.4,0.3,0.5,0.2,0.1,0.1,0.1,0.1,0,0.1,0,0,0.1,0.447743667
093001,Grande Prairie,AB,,55.1172,-118.7647,645,1HR,0,26,0.2,0.5,0.3,0.1,0.1,0.1,0.1,0.1,0,0.1,0.2,0.2,0.2,0.671573747
093101,Genesee,AB,Range Road 15,53.3016,-114.2211,772,1HR,0,45,0.5,0.5,0.4,0.5,1.2,1.2,1.1,1.3,0.4,0.6,0.2,0.4,0.7,1.912052137
093202,Hinton,AB,Private Road,53.427301,-117.544067,1215,1HR,0,81,0.3,1.1,0.4,0.4,0.6,0.6,0.4,0.3,0.1,0.2,0.4,0.5,0.4,1.839421232
093801,Warbug,AB,Range Road 34,53.53,-114.6361,753,1HR,0,28,0.5,0.2,1,0.9,0.3,0.3,0.4,0.1,,,0.2,0.2,0.4,1.516519212
093901,Thorsby,AB,Range Road 35,53.633,-114.4199,774,1HR,0,16,0.3,0.1,0.3,0.4,0.2,0.2,0.3,0.2,0,0.1,0,0.1,0.2,0.838142495
094001,Debolt,AB,Goodwin Road,55.402658,-118.280945,638,1HR,0,22.6,0.8,0.8,0.8,0.5,0.2,0.2,0.1,0.2,0.2,0.2,0.2,0.6,0.4,0.80003617
094202,Sunnybrook,AB,Township Road 514 & Range Road 33a,53.4243,-114.3749,684,1HR,0,27,0.3,0.6,0.5,0.6,1.2,0.8,1.1,0.5,0.4,0.6,0.2,0.3,0.6,1.862263166
094301,Cold Lake,AB,15 Ave,54.414014,-110.232939,556,1HR,0,5,0.2,0.3,0.1,0.2,0.1,0,0,0,0,0.1,0.1,0.1,0.1,0.34965317
094401,St Lina,AB,North Of Township Road 604 On Ab-867,54.2165,-111.5026,679,1HR,0,5,0.5,0.4,0.5,0.4,0.1,0.2,0.1,0.3,0,0.1,0.1,0.3,0.3,0.563779417
094601,Anzac,AB,264 Stony Mountain Rd.,56.44928,-111.03722,497,1HR,0,20,0.9,0.6,0.7,0.4,0.2,0.2,0.3,0.2,0.2,0.4,0.5,0.7,0.4,1.153460026
100110,Metro Vancouver - Burnaby,BC,700 Hammarskjold Drive,49.279214,-122.970707,104,1HR,0,9.1,0.1,0.1,0.1,0.3,0.4,0.3,0.4,0.6,0.3,0.3,0.1,0.1,0.3,0.466235516
100111,Metro Vancouver - Port Moody,BC,Moody Street & Esplanade Avenue,49.280893,-122.849291,6,1HR,0,12,0.1,0.1,0.1,0.5,0.9,0.4,0.8,0.6,0.5,0.5,0.3,0.1,0.4,0.753435591
100112,Metro Vancouver - Vancouver,BC,Robson/Hornby,49.282272,-123.12188,32,1HR,0,8.9,0.4,0.2,0.3,0.5,0.4,0.4,0.5,0.8,0.5,0.5,0.3,0.3,0.4,0.489722337
100119,Metro Vancouver - Burnaby,BC,5455 Rumble Street,49.21519,-122.985666,122,1HR,0,9.1,0.2,0.1,0.2,0.2,0.4,0.3,0.5,0.7,0.3,0.3,0.3,0.1,0.3,0.446062146
100121,Metro Vancouver - North Vancouver,BC,75 Riverside Dr.,49.301472,-123.020417,4,1HR,0,8.2,0.2,0.1,0.2,0.3,0.5,0.4,0.4,0.7,0.3,0.3,0.2,0.1,0.3,0.413066515
100128,Metro Vancouver - Richmond,BC,10371 Aragon Rd,49.141437,-123.108215,4,1HR,0,6.1,0.2,0.1,0.2,0.1,0.2,0.2,0.3,0.4,0.4,0.4,0.3,0.3,0.3,0.33635404
100132,Metro Vancouver - North Vancouver,BC,16th St. & Jones Ave,49.323994,-123.083496,71,1HR,0,24.6,0.3,0.1,0.2,0.4,0.4,0.3,0.5,0.5,0.3,0.4,0.1,0.1,0.3,0.524194081
100134,Metro Vancouver - Richmond,BC,3153 Templeton Street,49.186265,-123.152422,1,1HR,0,6.3,0.3,0.3,0.4,0.4,0.5,0.5,0.7,0.7,0.4,0.5,0.4,0.4,0.5,0.50924896
100136,Metro Vancouver - Burnaby,BC,Grosvenor Cresent,49.287869,-122.98563,200,1HR,0,70.6,1.1,0.1,0.1,0.6,0.8,0.4,0.9,0.8,0.5,1.1,0.5,0.4,0.6,2.473141802
100137,Metro Vancouver - Burnaby,BC,Eton And Madison Ave. Burnaby,49.287483,-123.007975,70,1HR,0,20.4,1.3,0.3,0.2,1.1,0.8,0.5,0.7,0.8,0.5,0.6,0.4,0.6,0.6,1.04575365
100140,Metro Vancouver - Delta,BC,411 Milsom Wynd,49.009877,-123.081997,52,1HR,0,7.6,0.2,0.3,0.3,0.3,0.4,0.2,0.4,0.4,0.2,0.4,0.3,0.2,0.3,0.345563926
100141,Metro Vancouver - Vancouver,BC,1290 East 11th Ave.,49.260267,-123.077776,30,1HR,0,76,0.5,0.4,0.3,0.8,0.6,0.5,0.7,0.8,0.5,0.6,0.5,0.4,0.6,1.449011887
100202,Prince George,BC,"Plaza 400, 1011 4th Avenue",53.91472,-122.74194,588,1HR,0,108.2,,1.9,1.1,1.4,1.3,1.5,1.7,1.3,1.5,1.5,1,1,1.4,4.03291891
100210,Prince George,BC,,53.90333,-122.70361,733,1HR,0,188.1,5.5,4.1,4.4,4.8,4,2.2,3.5,3.2,5.5,3.5,0.7,2.3,3.6,11.50752496
100211,Prince George,BC,775 E Highway 16,53.908008,-122.713344,616,1HR,0,92.9,3.4,3.4,3.8,4.6,4,1.9,2.9,2.4,6.3,2.7,1,2.8,3.3,7.839749569
100212,Prince George,BC,"Marsulex Acid Plant, 8901 Penn Road",53.8416,-122.7344,604,1HR,0,44.4,2.7,1.7,1,1.4,1.5,1.3,1.5,0.7,1.2,0.9,0.4,0.4,1.2,2.129653538
100304,Victoria,BC,"Sj Willis School, 923 Topaz Ave.",48.441942,-123.363165,29,1HR,0,6.7,0.2,0.2,0.2,0.2,0.2,0.2,0.5,0.5,0.3,0.5,0.3,0.2,0.3,0.444431499
100318,Victoria,BC,21 Erie St.,48.421417,-123.384178,0,1HR,0,4.8,0.1,,0.2,0.1,0.2,0.2,0.2,0.2,0.1,0.2,,0.2,0.2,0.211036238
100401,Kamloops,BC,317 Seymour St.,50.67477,-120.334016,381,1HR,0,6.9,0.2,0.3,0.3,0.2,0.1,0.1,0.2,0.5,0.1,0.2,0.2,0.2,0.2,0.361556455
100701,Kelowna,BC,3333 College Way,49.862336,-119.477367,347,1HR,0,2.2,0.4,0.3,0.4,0.4,0.4,0.3,0.4,0.5,0.3,0.4,0.5,0.4,0.4,0.229540283
101003,Abbotsford,BC,32995 Bevan Ave.,49.042579,-122.309821,58,1HR,0,7.1,0.1,0.2,0.2,0.2,0.2,0.2,0.4,0.4,0.1,0.2,0.1,0.1,0.2,0.348154405
101005,Abbotsford,BC,1073 Columbia Street,49.021554,-122.326523,65,1HR,0,6.2,0,0.1,0.1,0.1,0.2,0.2,0.4,0.3,0.2,0.2,0.1,0.1,0.2,0.282723742
101101,Metro Vancouver - Chilliwack,BC,46360 Airport Road,49.155848,-121.940279,12,1HR,0,6.3,0,0.1,0.1,0.1,0.2,0.1,0.3,0.4,0.2,0.1,0,0,0.1,0.238266938
101202,Metro Vancouver - Pitt Meadows,BC,18477 Dewdny Trunk,49.245233,-122.70889,5,1HR,0,5.3,0.3,0.2,0.3,0.3,0.3,0.2,0.4,0.4,0.2,0.5,0.4,0.4,0.3,0.413259405
101301,Metro Vancouver - Langley,BC,23752 52nd Avenue,49.095613,-122.567104,88,1HR,0,5.8,0,0.1,0.1,0.2,0.2,0.2,0.3,0.2,0.1,0.1,0.1,0,0.1,0.26705252
101603,Squamish,BC,38370 Buckley Avenue,49.70516,-123.15133,6,1HR,0,10,0.3,0.2,0.2,0.2,0.3,0.2,0.3,0.3,0.3,0.3,0.2,0.2,0.2,0.300372723
101701,Quesnel,BC,585 Callanan Street,52.981686,-122.493227,490,1HR,0,20,0.1,0.1,0.2,0.3,0.3,0.4,0.7,0.4,0.3,0.3,0.2,0.2,0.3,0.727314809
102201,Trail,BC,1875 Columbia Ave.,49.096218,-117.697828,422,1HR,0,226.5,6.1,4.6,8.7,7.3,7.2,4.6,8.1,5.1,5.8,5.1,5.7,5.6,6.2,13.78831898
102210,Trail,BC,8995 Highway 22a,49.046405,-117.60711,0,1HR,0,103.7,6.4,2.4,6.1,3.2,3.7,1.4,3.4,3.7,3,2.5,2.8,5.6,3.7,6.792814648
102220,Trail,BC,395 Schofield Highway,49.0952,-117.7469,0,1HR,0,457.4,4.7,8.1,8.3,4.2,5.6,7.2,7.5,6.4,4.2,2.2,6.6,6.7,6,17.17213824
102230,Trail,BC,S End,49.157855,-117.73312,0,1HR,0,140.5,8.1,7.7,6.3,3.8,1.4,2.9,3,3.2,1.7,2.3,12.9,12.9,5.7,11.73175039
102503,Terrace,BC,3411 Munroe Street,54.52167,-128.6075,81,1HR,0,7.9,0.2,0.3,0.4,0.3,0.5,0.7,0.6,0.7,0.4,0.3,0.3,0.3,0.4,0.644847776
102701,Williams Lake,BC,1045 Western Avenue,52.14428,-122.150391,631,1HR,0,2.1,,0.2,0.2,0.2,0.2,0.2,0.3,0.4,0.2,0.2,0.2,0.2,0.2,0.178929403
103502,Castlegar,BC,801 9th Avenue,49.317698,-117.661527,407,1HR,0,83.1,2.4,2.8,1.1,1.1,0.4,0.9,0.9,1.1,0.9,0.5,3.8,3.7,1.7,4.170697277
103702,Pine River,BC,Gas Plant Site,55.574531,-121.921247,1159,1HR,0,66.8,3.3,3.8,3,2.8,5.7,6,3.6,6.9,1.2,0.5,0.3,0.9,3.2,6.402938698
103704,Pine River,BC,Pine River Gas Plant,55.6056,-121.9722,610,1HR,0,12,0.3,0.2,0.3,0.3,0.2,0.1,0.2,0.3,0.2,0.2,0.2,0.2,0.2,0.391814602
103901,Kitimat,BC,651 Columbia Ave W,54.05389,-128.671436,18,1HR,0,35.1,0.1,0.4,0.6,0.5,0.8,0.8,0.7,0.5,0.5,0.4,0.2,0.3,0.5,1.769056737
103902,Kitimat,BC,Haulage Road,54.029194,-128.70269,11,1HR,0,101.9,1.3,4.9,3.5,2.3,3.6,4.6,4.7,8.4,2.5,2.7,2.7,3.3,3.7,7.881754982
103904,Kitimat,BC,1332 Lahakas Blvd North,54.066909,-128.639131,94,1HR,0,23.7,0.1,0.2,0.4,0.3,0.7,0.6,0.5,0.3,0.3,0.3,0.3,0.2,0.3,1.274016386
103905,Kitimat,BC,347 Haisla Avenue,53.973228,-128.650768,5,1HR,0,30.7,0,0.1,0.4,0.1,0.3,0.2,0.3,0.2,0.2,0.2,0.2,0.1,0.2,0.933168495
104301,Taylor,BC,Mcmahon Complex,56.150186,-120.686985,474,1HR,0,80.8,1.1,0.6,1.3,1.1,0.8,0.7,0.4,0.6,1.3,1.2,0.7,0.8,0.9,2.919274179
104302,Taylor,BC,Pingle Creek Road,56.105871,-120.662779,689,1HR,0,55.3,0.4,0.4,1.1,0.5,0.2,0.3,0.3,0.3,0.2,0.4,0.5,0.4,0.4,1.73638658
104303,Bessborough,BC,237 Road,55.7919,-120.4836,665,1HR,0,26,0.6,0.5,0.5,0.3,0.3,0.3,0.2,0.3,0.3,0.3,0.4,0.4,0.4,0.608369337
104304,Farmington,BC,4794 Parkland Road,55.913779,-120.533749,696,1HR,0,1.1,,,,,,,,,,,,,,
105301,Langdale,BC,1551 Johnson Rd.,49.438848,-123.479185,90,1HR,0,17,0.3,0.3,0.6,0.7,0.6,1.1,0.8,0.9,0.4,0.7,0.5,0.4,0.6,1.001298527
105504,Fort St. John,BC,10511 99 Avenue,56.24473,-120.8561,679,1HR,0,6,0.3,0.4,0.6,0.3,0.3,0.2,0.2,0.2,0.1,0.3,0.3,0.2,0.3,0.392641092
106702,Crofton,BC,1427 Georgia Park Heights Rd,48.849649,-123.637031,150,1HR,0,249.1,,,1.6,1.9,2.9,2.1,10.6,11.5,8.3,4,1,0.6,,
129003,Yellowknife,NT,"52nd Ave. & 49th Street, Sir John Franklin High School",62.45207,-114.364,193,1HR,0,1,0.4,0.4,0.4,0.3,0.3,0.4,0.3,0.1,0,0,0,0.1,0.2,0.211776522
129102,Norman Wells,NT,#7 Forestry Road N. Wells,65.27926,-126.813057,60,1HR,0,0.9,0.1,0.2,0.3,0.5,0.6,0.7,0.1,0.3,0.5,0.7,0.6,0.7,0.4,0.300663875
129203,Inuvik,NT,"Bompas Road (Block21, Lot 4084)",68.35702,-133.714057,30,1HR,0,2.6,0.2,0.2,0.2,0.3,0.3,0.3,0.3,0.3,0.3,0.4,,0.6,0.3,0.18522626
129303,Iqaluit,NU,Water Lab (1307 Federal Road),63.751619,-68.522433,35,1HR,-0.7,11.4,1.8,1.5,6.8,2.8,1.7,1.8,0.3,0.2,0.2,0.1,0.2,0.2,1.5,2.253403691
129601,Fort Smith,NT,95 Conibear Crescent,60.00455,-111.893241,358,1HR,0,1,0.1,0.1,0.1,0.2,0.5,0.1,0.1,0.4,0.4,0.5,0.2,0.3,0.2,0.292042232
************8HR************,,,,,,,,,,,,,,,,,,,,,,,
NAPS ID,City,P/T,Location,Latitude,Longitude,Elevation,ID,Minimum,Maximum,January,February,March,April,May,June,July,August,September,October,November,December,Mean,Standard Deviation
010102,St. John's,NL,354 Water Street,47.56038,-52.71147,7,8HR,0,7.2,0.5,0.4,0.4,0.7,0.8,1.1,1.6,2,1.1,1,0.4,0.7,0.9,0.695096723
010401,Mount Pearl,NL,Old Placentia Road,47.50513,-52.79476,135,8HR,0,4.3,1.2,1,0.9,1,1.1,1.1,1.1,0.8,0.7,0.8,0.7,0.8,0.9,0.560044249
010501,Grand Falls - Windsor,NL,Scott Avenue,48.92696,-55.65966,62,8HR,0,1.2,0.4,0.3,0.5,0.7,0.5,0.4,0.7,0.7,0.3,0.5,0.6,0.4,0.5,0.230559138
010602,Corner Brook,NL,Macpherson Ave,48.95224,-57.92207,100,8HR,0,7.4,0.6,0.4,0.4,,,0.8,0.8,0.8,0.8,0.6,0.7,0.7,,
010901,Burin,NL,18 Hwy 220 (Main St.),47.09899,-55.19852,1,8HR,0,0.5,0.1,0.1,0.1,0.1,0.1,0.1,0.1,0.1,0,0.1,0.1,0.1,0.1,0.074404289
011002,Labrador City,NL,317 Hudson Drive,52.945487,-66.910306,558,8HR,0,23.8,0.4,0.5,1.7,0.5,0.2,0.6,0.3,0.3,0.3,0.9,0.9,0.6,0.6,1.496615055
020104,Charlottetown,PE,3 Brighton Road,46.233,-63.13667,21,8HR,0,9.2,0.6,0.3,0.3,0.2,0.2,0.1,0.1,0.1,0,0.1,,0.3,0.2,0.393105019
030113,Halifax,NS,1672 Granville Street,44.64711,-63.57366,28,8HR,0,13.9,0.4,0.1,0.2,0.2,0.2,0.2,0.2,0.3,0.4,0.3,0.6,0.8,0.3,0.545454253
030118,Halifax,NS,1649 Barrington Street,44.646425,-63.573383,18,8HR,0,3.2,,,,,,,,,,,,,,
030120,Dartmouth,NS,341 Cherrybrook Road,44.7198,-63.48076,68,8HR,0,5.4,0.3,0.3,0.4,0.2,0.2,0.3,0.3,0.3,0.2,0.1,0.3,1.1,0.3,0.444423557
030201,Port Hawkesbury,NS,18 Embree Street,45.614161,-61.362356,14,8HR,0,30.3,0.6,0.7,0.5,0.9,1.4,1.3,1.3,0.6,1.1,0.7,0.5,0.6,0.8,2.006138016
030310,Sydney,NS,71 Welton Street,46.14222,-60.17252,27,8HR,0,32.7,0.4,0.4,1.5,1,0.5,0.4,0.2,0.3,0.6,0.3,0.4,0.3,0.5,1.632453263
030901,Pictou,NS,91 Beeches Road,45.681744,-62.696575,12,8HR,0,13.4,0.3,0.5,0.5,0.6,0.3,0.2,0.1,0.2,0.3,0.3,0.3,0.8,0.4,0.742277857
040203,Saint John,NB,Mountain Road,45.308762,-66.008384,41,8HR,0,34.9,0.6,0.8,0.4,2.7,4,4,4.5,3.6,2.3,0.3,0.2,0.4,2,4.08121124
040207,Saint John,NB,476 Lancaster Avenue W.,45.252898,-66.080065,59,8HR,0,24.6,1.1,0.7,0.8,0.5,0.3,0.8,0.2,0.2,0.3,0.9,1.1,2.5,0.8,1.958297293
040208,Saint John,NB,111 Champlain Drive,45.291218,-66.00305,47,8HR,0,45.6,1.9,1.3,0.3,1.5,1.1,0.4,0.3,0.5,1.1,0.4,1.8,1.4,1,3.1009346
040209,Saint John,NB,8 Castle Street,45.28028,-66.05611,41,8HR,0,13.7,0.6,0.5,0.4,0.7,0.5,0.2,0.1,0.1,0.2,0.1,0.7,0.3,0.4,1.003228047
041501,Edmundston,NB,19 Queen St.,47.363195,-68.322302,159,8HR,0,70.9,2.8,2.1,2,1.8,3.4,3.2,2.8,1.6,1.8,2.6,1.7,4.6,2.5,5.787101117
050103,Montréal,QC,"1050 A, Boul. Saint-Jean-Baptiste",45.641026,-73.499682,19,8HR,0,20.1,1.4,0.9,1.3,1.2,1.1,1.3,0.9,1,0.7,1.4,1.3,0.9,1.1,1.779619449
050122,Brossard,QC,En Face Du 8400 Avenue Sorbonne,45.448663,-73.480819,17,8HR,0,4.2,0.3,0.3,0.2,0.2,0.4,0.5,0.3,0.2,0.2,0.1,0.1,0.1,0.2,0.356698989
050126,Montréal,QC,20965 Ch. Sainte-Marie,45.426542,-73.928929,39,8HR,0,4.7,0.6,0.5,0.3,0.3,0.4,0.3,0.3,0.3,0.3,0.3,0.3,0.5,0.4,0.443686277
050133,Montréal,QC,"8200a Rue Chenier, Arena Chenier",45.60176,-73.541992,41,8HR,0,10.6,1.2,0.7,0.8,0.3,0.6,0.4,0.4,0.5,0.5,0.3,0.2,0.5,0.6,0.892741194
050134,Montréal,QC,2580 Saint-Joseph Est,45.54271,-73.57176,53,8HR,0,8.7,1.3,1.1,0.9,0.7,1,0.7,0.7,0.8,0.8,0.5,0.3,0.4,0.8,0.878209179
050136,Montréal,QC,75 Rue Ontario Est,45.512189,-73.566842,32,8HR,0,9.3,0.5,0.5,0.3,0.2,0.7,0.4,0.3,0.2,0.3,0.1,0.1,0.1,0.3,0.618902399
050204,Gatineau,QC,"255 St-Redempteur, Hull",45.435987,-75.723429,62,8HR,0,2.2,0.1,0.1,0,0.1,0.1,0.1,0,0,0,0.1,0,0,0.1,0.13471292
050308,Québec,QC,600 Rue Des Sables,46.821177,-71.220495,8,8HR,0,2.8,0.3,0.2,0.2,0.2,0.3,0.2,0.3,,0.2,0.4,0.4,0.5,0.3,0.294409757
050604,Rouyn-Noranda,QC,1570 Rue Paradis,48.234087,-78.982778,289,8HR,0,52.8,2,1.3,1.4,1.2,1.1,0.5,0.9,1,1.5,2,1.9,1.5,1.4,4.020340749
050803,Trois Rivières,QC,Rue Whitehead,46.357175,-72.546187,12,8HR,0,3.2,0.2,0.3,0.3,0.2,0.3,0.2,0.2,0.2,0.2,0.2,0.3,0.2,0.2,0.290387057
050902,Saguenay,QC,"2885 Berthier (Arvida), Jonquiere",48.43389,-71.18454,93,8HR,0,90.4,4.7,4.4,5.6,4.8,5,4.2,3.6,3,6.1,6.7,9.7,5.7,5.3,10.16351214
054401,Saint-Anicet,QC,1128 De La Guerre,45.120624,-74.2896,50,8HR,0,10.6,1,0.5,0.5,,0.5,0.3,0.2,0.2,0.3,0.5,0.3,0.3,0.4,0.880349192
055702,Lévis,QC,200 Rue Des Commandeurs,46.806029,-71.167506,106,8HR,0,3.5,0.4,0.5,0.2,0.3,0.3,0.5,0.4,0.3,0.2,0.2,0.3,0.4,0.3,0.37974955
060104,Ottawa,ON,Rideau & Wurtemburg,45.43433,-75.676,68,8HR,0,2,0.3,0.3,0.2,0.2,0.2,0.1,0.1,0.1,0.1,0.2,0.2,0.2,0.2,0.149215318
060204,Windsor,ON,467 University Ave. West,42.315778,-83.043667,176,8HR,-0.2,18.4,2.1,0.9,0.4,0.5,0.8,0.7,0.3,0.4,0.1,0.4,0.2,0.3,0.6,1.498760946
060211,Windsor,ON,College & South St. / 928 South St.,42.292889,-83.073139,180,8HR,-0.2,10.3,1.1,0.7,0.5,0.6,0.7,1,0.7,0.9,0.4,0.6,0.8,0.6,0.7,1.032671633
060430,Toronto,ON,125 Resources Road,43.709444,-79.5435,141,8HR,-0.1,5.6,1,0.5,0.2,0.3,0.4,0.4,0.3,0.2,0.1,0.2,0.2,0.2,0.3,0.489627333
060438,Toronto,ON,401w - 125 Resources Rd.,43.711106,-79.543425,139,8HR,0,4.9,0.3,0.3,0.3,0.3,0.4,0.3,0.4,0.2,0.2,0.3,0.3,0.2,0.3,0.360472673
060440,Toronto,ON,4905 Dufferin Street,43.78042,-79.46752,,8HR,0,5.3,0.4,0.3,0.2,0.2,0.3,0.3,0.4,0.2,0.2,0.3,0.2,0.1,0.3,0.434250328
060512,Hamilton,ON,Elgin & Kelly,43.25778,-79.86167,90,8HR,0.1,78.3,1.3,2.6,3.9,5.3,15.8,11.3,5.8,3.6,5.4,2.1,1.2,1.9,5,9.556137757
060513,Hamilton,ON,Vickers Rd. & East 18th. St.,43.22942,-79.86278,209,8HR,0,39.9,1.1,0.9,1.9,2.2,7.4,4.3,2.8,2,1.8,1.3,0.7,,2.4,4.172407478
060610,Sudbury,ON,155 Elm Street,46.49194,-81.00311,271,8HR,0,27.9,1.5,1.8,1.1,2,0.9,1,1.2,0.8,1,1.1,1.2,1.2,1.2,2.169696425
060709,Sault Ste. Marie,ON,"443 Northern Ave., Sault College",46.53319,-84.30992,244,8HR,0,25.8,1.1,1.2,0.6,0.8,1.4,0.6,0.9,0.7,0.3,0.5,0.5,1,0.8,1.796888836
061007,Sarnia,ON,1300 Tashmoo Ave./ Lasalle Line,42.912545,-82.416816,180,8HR,-0.2,41.3,1.6,0.8,2,1.7,3.7,2.8,1.6,1,0.7,0.8,0.7,0.6,1.5,3.393660292
061009,Sarnia,ON,700 Christina St. N.,42.990263,-82.395341,182,8HR,-0.1,56.1,4,2.6,0.7,1,3.6,1.3,1.8,2,1.4,2,1,1.5,1.9,4.587755458
062601,Simcoe,ON,Experimental Farm,42.85685,-80.26964,236,8HR,-0.5,5.8,0.3,0.4,0.4,0.5,1.2,1.2,1.3,1.2,0.5,-0.2,-0.3,-0.4,0.5,0.718668718
080111,Regina,SK,1621 Albert St.,50.4527,-104.616,585,8HR,0,5.8,0.2,0.1,0.2,0.2,0.4,0.3,0.2,0.5,0.4,0.4,0.2,0.6,0.3,0.442013427
080211,Saskatoon,SK,511 1st Avenue North,52.13613,-106.66293,483,8HR,0,2,0.2,0.2,0.2,0.2,0.1,0.1,0.1,0.2,0.1,0.1,0.1,0.1,0.1,0.128400017
080402,Prince Albert,SK,63 - 12th Street East,53.201694,-105.75203,436,8HR,0,1.3,0.3,0.2,0.2,0.2,0.1,0.1,0.1,0.2,0.3,0.2,0.4,0.6,0.2,0.177779057
080502,Estevan,SK,528 1a Street,49.13235,-102.98499,563,8HR,0,40.7,1.6,2.7,2.5,2.2,1.3,0.9,0.8,1.6,0.9,1.3,0.6,1.7,1.5,3.262441154
081001,Swift Current,SK,1200 Begg St. W,50.285833,-107.81689,753,8HR,0,4,0.4,0.4,0.4,0.2,0.2,0.1,0.1,0.1,0.1,0.1,0.1,0.2,0.2,0.319523039
082002,Buffalo Narrows,SK,Buffalo Narrows Forest Protection Base,55.834566,-108.403332,425,8HR,0,2.3,0.5,0.4,0.2,0.5,0.5,0.4,0.4,0.2,0.2,0.2,0.2,0.3,0.3,0.224737134
090120,Edmonton,AB,6240 113 Street,53.50022,-113.526056,681,8HR,0,8.4,0.5,0.5,0.9,0.3,0.2,0.2,0.4,0.4,0.2,0.3,0.2,0.3,0.4,0.705649574
090121,Edmonton,AB,17 Street & 105 Avenue,53.54823,-113.36811,670,8HR,0,23,0.5,0.8,1.2,0.7,1.2,1,1.4,1.5,0.9,0.6,0.6,0.5,0.9,1.699248864
090133,Edmonton,AB,13915 115 Avenue Nw,53.564411,-113.562583,670,8HR,0,5.9,0.4,0.5,1,0.7,0.4,0.4,0.4,0.4,0.2,0.3,0.2,0.3,0.4,0.63175446
090134,Sherwood Park,AB,Ottwell House Park,53.532092,-113.320983,709,8HR,0,22,1.4,1.9,1.3,1.1,1.1,1.2,1.5,1.8,1.1,1.5,0.7,1.1,1.3,2.021986597
090135,Ardrossan,AB,3 Avenue,53.554691,-113.144905,707,8HR,0,16.5,1,1.6,0.9,0.5,0.2,0.5,,,0.3,0.7,0.8,0.8,,
090229,Calgary,AB,4700 110 Avenue Se,50.955122,-113.969742,1032,8HR,0,4.3,0.6,0.5,0.4,0.2,0.2,0.2,0.5,1,0.1,0.4,0.4,0.5,0.4,0.565014804
090302,Red Deer,AB,73 Street & Riverside Drive,52.29867,-113.79352,858,8HR,0,2.9,0.4,0.4,0.3,0.2,0.1,0,0.1,0.1,0,0.1,0,0.1,0.2,0.337104923
090304,Red Deer,AB,11 Lancaster Drive,52.24095,-113.765439,907,8HR,0,7.4,0.8,0.6,0.7,0.4,0.2,0.2,0.3,0.4,0.1,0.4,0.6,0.8,0.4,0.536504142
090502,Lethbridge,AB,28 Street & 12 Avenue N.,49.71621,-112.8006,918,8HR,0,1.1,0,0,0,0,0,0,0,0,0,0,0,0,0,0.10269639
090601,Fort Saskatchewan,AB,9209a-96 Ave,53.69874,-113.22285,628,8HR,0,8.6,0.3,0.6,0.5,0.2,0.3,0.4,0.5,0.6,0.3,0.4,0.3,0.4,0.4,0.743093501
090603,Fort Saskatchewan,AB,100 Ave East Of 109st.,53.71622,-113.19994,620,8HR,0,10.1,0.4,0.7,0.7,0.4,0.5,0.3,0.5,0.5,0.7,0.3,0.3,0.5,0.5,0.943739617
090607,Gibbons,AB,Behind 4807 50 Ave,53.827241,-113.327174,673,8HR,0,13.9,0.6,0.5,1.1,0.6,0.2,0.5,0.5,0.3,0.5,0.5,0.3,0.9,0.6,0.925475422
090608,Redwater,AB,4704-49 Ave,53.95183,-113.105857,627,8HR,0,9.6,0.3,0.5,0.6,0.5,0.3,0.4,0.4,0.2,0.2,0.5,0.2,0.4,0.4,0.82036974
090609,Bruderheim,AB,5321 48 Street,53.805629,-112.925851,630,8HR,0,13.4,0.7,1.5,0.5,0.6,0.6,1,0.9,1.4,0.5,1.2,1,1.3,0.9,1.301088196
090701,Fort Mcmurray,AB,Macdonald Dr.,56.73341,-111.39047,260,8HR,0,12.8,0.5,0.6,0.8,0.4,0.2,0.2,0.5,0.8,0.5,0.3,0.2,0.4,0.4,1.091094009
090702,Fort Mcmurray,AB,Timberlea Subdivision,56.75139,-111.47662,355,8HR,0,19.8,1.1,0.9,1.3,0.6,0.3,0.5,0.8,0.6,0.7,0.6,0.6,0.7,0.7,1.524374774
090801,Fort Mckay,AB,Main Street,57.18941,-111.6405,268,8HR,0,25.9,0.9,0.5,1.7,0.7,0.8,0.5,0.6,0.4,0.4,1.3,0.4,0.7,0.7,1.857314402
090802,Fort Mckay,AB,Lower Camp,57.02681,-111.5007,247,8HR,0,46.9,0.9,1.6,1.9,2.4,2.7,2.2,1.7,1.8,3,3.6,1.8,1.2,2.1,3.983401014
090805,Fort Mckay,AB,Buffalo Viewpoint,56.99647,-111.59295,336,8HR,0,38.1,0.4,0.4,0.5,0.7,1.2,1.1,0.6,0.6,1.1,0.8,0.2,0.4,0.7,2.225250483
090806,Fort Mckay,AB,4-13-094-11 W4,57.1492,-111.6424,342,8HR,0,25,0.8,0.3,1.2,0.6,0.8,0.5,0.6,0.4,0.6,1,0.6,0.7,0.7,1.587778469
090807,Wapasu,AB,Located Oustide Approval Boundaries At Pti Camp,57.26176,-111.037,429,8HR,0,14.1,1.3,1.1,0.8,0.3,0.7,0.8,0.5,0.9,0.5,0.8,0.5,2.2,0.9,1.760837785
090808,Conklin,AB,1-33-076-08 W4,55.621408,-111.17269,673,8HR,0,8.8,0.8,0.5,0.5,0.4,0.2,0.2,0.1,0.1,0.1,0.3,0.4,0.6,0.3,0.6130112
091101,Elk Island,AB,National Park,53.68238,-112.86812,714,8HR,0,10.4,0.6,0.9,0.5,0.3,0.3,0.3,0.4,0.7,0.3,0.5,0.6,0.6,0.5,0.854267659
091301,Tomahawk,AB,Se 2 51 6 W5,53.37255,-114.76835,789,8HR,0,5.8,0.3,0.4,0.6,0.3,0.1,0.1,0.2,0.1,0.2,0.2,0,0.1,0.2,0.573318411
091401,Violet Grove,AB,Se 17 48 08 W5,53.14222,-115.13806,1000,8HR,0,7.5,0.4,0.4,0.4,0.3,0.1,0,0.1,0.1,0.1,0.1,0.1,0.2,0.2,0.544285208
091501,Beaverlodge,AB,Beaverlodge Research Farm,55.19634,-119.39682,762,8HR,0,7.1,0.4,0.5,0.8,0.5,0.1,0.1,0.2,0.3,0.1,0,0.1,0.4,0.3,0.511883022
091601,Carrot Creek,AB,Se 31 53 13 W5,53.621062,-115.869155,800,8HR,0,4.4,0.2,0.3,0.4,0.1,0,0,0,0,0,0,0,0,0.1,0.354132674
091701,Steeper,AB,Ne 12 48 22 W5,53.1325,-117.09111,1400,8HR,0,4.8,0,0.1,0.2,0.2,0,0,0,0,0.1,0,0,0,0.1,0.250221855
091801,Fort Chipewyan,AB,Fort Chipewyan,58.70879,-111.17683,238,8HR,0,22.1,1,0.1,0.1,0,0,0,0,0,0.1,0.2,0.2,0.3,0.2,0.872603324
091901,Caroline,AB,16-30-034-5 W5,51.94687,-114.69744,1140,8HR,0,8.4,1.1,1.2,1.1,1.1,1.2,1.1,1.2,1.2,1.1,1.2,1.2,1.1,1.2,0.432685232
092001,Grande Prairie,AB,10327 - 107 Avenue,55.1766,-118.8078,658,8HR,0,7.8,0.7,0.8,0.6,0.5,0,0,0.2,0.1,,0.1,0.2,0.6,0.4,0.544764359
092201,Lamont,AB,Rge Rd 203 & Twp Rd 550,53.76036,-112.88017,767,8HR,0,12.3,1.1,1.5,0.9,0.5,0.5,0.9,1.1,1.4,0.5,1.4,1.1,1.6,1,1.383831515
092601,Breton,AB,Hwy 20,53.0903,-114.46061,900,8HR,0,9.3,0.4,0.3,0.6,0.3,0.2,0.2,0.1,0.4,0.1,0.1,0.4,0.1,0.3,0.631230916
092901,Edson,AB,7 Ave,53.593771,-116.395822,894,8HR,0,3.1,0.4,0.3,0.5,0.2,0.1,0.1,0.1,0.1,0,0.1,0,0,0.1,0.330796624
093001,Grande Prairie,AB,,55.1172,-118.7647,645,8HR,0,10.3,0.2,0.5,0.4,0.1,0.1,0.1,0.1,0.1,0,0.1,0.2,0.2,0.2,0.42853084
093101,Genesee,AB,Range Road 15,53.3016,-114.2211,772,8HR,0,15.5,0.5,0.5,0.4,0.5,1.1,1.2,1.1,1.2,0.4,0.6,0.2,0.4,0.7,1.218733829
093202,Hinton,AB,Private Road,53.427301,-117.544067,1215,8HR,0,23.3,0.3,1.1,0.4,0.4,0.6,0.6,0.4,0.3,0.1,0.2,0.3,0.5,0.4,1.165068639
093801,Warbug,AB,Range Road 34,53.53,-114.6361,753,8HR,0,13.8,0.5,0.2,1,0.9,0.3,0.3,0.4,0.1,,,0.2,0.2,0.4,1.144864984
093901,Thorsby,AB,Range Road 35,53.633,-114.4199,774,8HR,0,5.6,0.3,0.1,0.3,0.3,0.2,0.2,0.2,0.2,0,0.1,0,0.1,0.2,0.527800196
094001,Debolt,AB,Goodwin Road,55.402658,-118.280945,638,8HR,0,6.2,0.8,0.8,0.8,0.5,0.2,0.2,0.1,0.2,0.2,0.2,0.2,0.6,0.4,0.587525985
094202,Sunnybrook,AB,Township Road 514 & Range Road 33a,53.4243,-114.3749,684,8HR,0,11,0.3,0.6,0.5,0.6,1.1,0.7,1,0.5,0.4,0.6,0.2,0.3,0.6,1.185852058
094301,Cold Lake,AB,15 Ave,54.414014,-110.232939,556,8HR,0,2.6,0.2,0.3,0.1,0.2,0.1,0,0,0,0,0.1,0.1,0.1,0.1,0.26299258
094401,St Lina,AB,North Of Township Road 604 On Ab-867,54.2165,-111.5026,679,8HR,0,4.2,0.5,0.5,0.5,0.4,0.1,0.1,0.1,0.3,0,0.1,0.1,0.4,0.3,0.457459995
094601,Anzac,AB,264 Stony Mountain Rd.,56.44928,-111.03722,497,8HR,0,9,0.9,0.6,0.7,0.4,0.2,0.2,0.3,0.2,0.2,0.4,0.5,0.7,0.4,0.864656051
100110,Metro Vancouver - Burnaby,BC,700 Hammarskjold Drive,49.279214,-122.970707,104,8HR,0,3.7,0.1,0.1,0.1,0.3,0.4,0.3,0.4,0.6,0.3,0.3,0.1,0.1,0.3,0.350668019
100111,Metro Vancouver - Port Moody,BC,Moody Street & Esplanade Avenue,49.280893,-122.849291,6,8HR,0,6.3,0.1,0.1,0.1,0.5,0.9,0.4,0.8,0.6,0.5,0.5,0.3,0.1,0.4,0.621357233
100112,Metro Vancouver - Vancouver,BC,Robson/Hornby,49.282272,-123.12188,32,8HR,0,4.3,0.4,0.2,0.3,0.5,0.4,0.4,0.5,0.8,0.5,0.5,0.3,0.3,0.4,0.403431115
100119,Metro Vancouver - Burnaby,BC,5455 Rumble Street,49.21519,-122.985666,122,8HR,0,4.6,0.2,0.1,0.2,0.2,0.4,0.3,0.5,0.7,0.3,0.4,0.3,0.1,0.3,0.358235443
100121,Metro Vancouver - North Vancouver,BC,75 Riverside Dr.,49.301472,-123.020417,4,8HR,0,2.7,0.2,0.1,0.2,0.3,0.5,0.4,0.4,0.7,0.3,0.3,0.2,0.1,0.3,0.324936749
100128,Metro Vancouver - Richmond,BC,10371 Aragon Rd,49.141437,-123.108215,4,8HR,0,2.6,0.2,0.1,0.2,0.1,0.2,0.2,0.3,0.4,0.4,0.4,0.3,0.3,0.3,0.286105326
100132,Metro Vancouver - North Vancouver,BC,16th St. & Jones Ave,49.323994,-123.083496,71,8HR,0,7.5,0.3,0.1,0.2,0.4,0.4,0.3,0.5,0.5,0.3,0.4,0.1,0.1,0.3,0.376933693
100134,Metro Vancouver - Richmond,BC,3153 Templeton Street,49.186265,-123.152422,1,8HR,0,4.4,0.3,0.3,0.3,0.4,0.5,0.5,0.7,0.8,0.4,0.5,0.4,0.4,0.5,0.416890789
100136,Metro Vancouver - Burnaby,BC,Grosvenor Cresent,49.287869,-122.98563,200,8HR,0,21,1.1,0.1,0.1,0.6,0.8,0.4,0.9,0.8,0.5,1.1,0.5,0.4,0.6,1.404261916
100137,Metro Vancouver - Burnaby,BC,Eton And Madison Ave. Burnaby,49.287483,-123.007975,70,8HR,0,9.2,1.3,0.3,0.2,1.1,0.8,0.5,0.7,0.8,0.5,0.6,0.4,0.6,0.6,0.771693857
100140,Metro Vancouver - Delta,BC,411 Milsom Wynd,49.009877,-123.081997,52,8HR,0,3.8,0.2,0.3,0.3,0.3,0.4,0.2,0.4,0.4,0.2,0.4,0.3,0.2,0.3,0.269287482
100141,Metro Vancouver - Vancouver,BC,1290 East 11th Ave.,49.260267,-123.077776,30,8HR,0,37.2,0.5,0.4,0.3,0.8,0.6,0.5,0.7,0.8,0.5,0.6,0.5,0.4,0.6,1.076217523
100202,Prince George,BC,"Plaza 400, 1011 4th Avenue",53.91472,-122.74194,588,8HR,0,41.3,,1.9,1.1,1.4,1.3,1.5,1.7,1.3,1.5,1.5,1,1,1.4,2.839812325
100210,Prince George,BC,,53.90333,-122.70361,733,8HR,0,97.9,5.6,4.1,4.5,4.9,4,2.2,3.5,3.2,5.5,3.6,0.7,2.4,3.7,8.280040485
100211,Prince George,BC,775 E Highway 16,53.908008,-122.713344,616,8HR,0,55.1,3.4,3.4,3.8,4.7,3.9,1.9,2.9,2.4,6.3,2.7,1,2.8,3.3,6.201313762
100212,Prince George,BC,"Marsulex Acid Plant, 8901 Penn Road",53.8416,-122.7344,604,8HR,0,13.6,2.7,1.7,1,1.4,1.5,1.3,1.5,0.7,1.2,0.9,0.4,0.4,1.2,1.777012603
100304,Victoria,BC,"Sj Willis School, 923 Topaz Ave.",48.441942,-123.363165,29,8HR,0,2.7,0.2,0.2,0.2,0.2,0.2,0.2,0.5,0.5,0.3,0.5,0.3,0.2,0.3,0.335459677
100318,Victoria,BC,21 Erie St.,48.421417,-123.384178,0,8HR,0.1,1.6,0.1,,0.2,0.1,0.2,0.2,0.2,0.2,0.1,0.2,,0.1,0.2,0.14698199
100401,Kamloops,BC,317 Seymour St.,50.67477,-120.334016,381,8HR,0,4.4,0.2,0.3,0.3,0.2,0.1,0.1,0.2,0.5,0.1,0.2,0.2,0.2,0.2,0.301525151
100701,Kelowna,BC,3333 College Way,49.862336,-119.477367,347,8HR,0,1.4,0.4,0.3,0.4,0.4,0.4,0.3,0.4,0.5,0.3,0.4,0.5,0.4,0.4,0.149686047
101003,Abbotsford,BC,32995 Bevan Ave.,49.042579,-122.309821,58,8HR,0,3.5,0.1,0.2,0.2,0.2,0.2,0.2,0.4,0.4,0.1,0.2,0.1,0.1,0.2,0.263744373
101005,Abbotsford,BC,1073 Columbia Street,49.021554,-122.326523,65,8HR,0,2.2,0,0.1,0.1,0.1,0.2,0.2,0.4,0.3,0.2,0.2,0.1,0.1,0.2,0.212477575
101101,Metro Vancouver - Chilliwack,BC,46360 Airport Road,49.155848,-121.940279,12,8HR,0,2.3,0,0.1,0.1,0.1,0.2,0.1,0.3,0.4,0.2,0.1,0,0,0.1,0.190398098
101202,Metro Vancouver - Pitt Meadows,BC,18477 Dewdny Trunk,49.245233,-122.70889,5,8HR,0,2.7,0.3,0.2,0.3,0.3,0.3,0.2,0.4,0.4,0.2,0.5,0.4,0.4,0.3,0.327547527
101301,Metro Vancouver - Langley,BC,23752 52nd Avenue,49.095613,-122.567104,88,8HR,0,2.5,0,0.1,0.1,0.2,0.2,0.2,0.3,0.2,0.1,0.1,0.1,0,0.1,0.205056928
101603,Squamish,BC,38370 Buckley Avenue,49.70516,-123.15133,6,8HR,0,2.5,0.3,0.2,0.2,0.2,0.3,0.2,0.3,0.3,0.3,0.3,0.2,0.2,0.2,0.214582133
101701,Quesnel,BC,585 Callanan Street,52.981686,-122.493227,490,8HR,0,6.6,0.1,0.1,0.2,0.3,0.3,0.4,0.7,0.4,0.3,0.3,0.2,0.2,0.3,0.45548509
102201,Trail,BC,1875 Columbia Ave.,49.096218,-117.697828,422,8HR,0,87,6,4.5,8.7,7.1,7.1,4.4,8,5,5.7,5.1,5.7,5.5,6.1,8.330321946
102210,Trail,BC,8995 Highway 22a,49.046405,-117.60711,0,8HR,0,42.3,6.3,2.4,6.1,3.2,3.7,1.5,3.5,3.7,3,2.4,2.8,5.5,3.7,5.105140043
102220,Trail,BC,395 Schofield Highway,49.0952,-117.7469,0,8HR,0,186.6,4.6,8.3,8.7,4.3,6,7.5,7.8,6.4,4.2,2.2,6.6,6.4,6.1,11.53261401
102230,Trail,BC,S End,49.157855,-117.73312,0,8HR,0,78.1,8.2,7.7,6.3,3.9,1.5,3,3.1,3.2,1.7,2.2,12.9,12.8,5.7,9.686216542
102503,Terrace,BC,3411 Munroe Street,54.52167,-128.6075,81,8HR,0,3.4,0.2,0.3,0.4,0.3,0.5,0.7,0.6,0.7,0.4,0.3,0.3,0.3,0.4,0.507324849
102701,Williams Lake,BC,1045 Western Avenue,52.14428,-122.150391,631,8HR,0,1.4,,0.2,0.2,0.2,0.1,0.2,0.3,0.4,0.2,0.2,0.2,0.1,0.2,0.146462073
103502,Castlegar,BC,801 9th Avenue,49.317698,-117.661527,407,8HR,0,35.1,2.4,2.8,1.1,1.1,0.4,0.9,0.9,1.1,0.9,0.5,3.8,3.7,1.7,3.386379708
103702,Pine River,BC,Gas Plant Site,55.574531,-121.921247,1159,8HR,0,44.5,3.3,3.8,3,2.8,5.7,5.8,3.6,6.7,1.3,0.5,0.3,0.9,3.2,5.019725888
103704,Pine River,BC,Pine River Gas Plant,55.6056,-121.9722,610,8HR,0,4.1,0.3,0.2,0.3,0.3,0.2,0.1,0.2,0.3,0.2,0.2,0.2,0.2,0.2,0.261865775
103901,Kitimat,BC,651 Columbia Ave W,54.05389,-128.671436,18,8HR,0,13.9,0,0.4,0.6,0.5,0.8,0.8,0.7,0.5,0.5,0.4,0.2,0.3,0.5,1.128735268
103902,Kitimat,BC,Haulage Road,54.029194,-128.70269,11,8HR,0,46.5,1.3,4.9,3.5,2.3,3.6,4.6,4.7,8.2,2.5,2.6,2.7,3.3,3.7,5.91145711
103904,Kitimat,BC,1332 Lahakas Blvd North,54.066909,-128.639131,94,8HR,0,10.6,0,0.2,0.4,0.3,0.7,0.6,0.5,0.3,0.3,0.2,0.3,0.2,0.3,0.799695626
103905,Kitimat,BC,347 Haisla Avenue,53.973228,-128.650768,5,8HR,0,9.6,0,0.1,0.4,0.1,0.3,0.2,0.3,0.2,0.2,0.2,0.2,0.1,0.2,0.573653625
104301,Taylor,BC,Mcmahon Complex,56.150186,-120.686985,474,8HR,0,28.3,1.1,0.6,1.3,1.1,0.7,0.7,0.4,0.6,1.3,1.2,0.7,0.7,0.9,1.95900219
104302,Taylor,BC,Pingle Creek Road,56.105871,-120.662779,689,8HR,0,17.8,0.4,0.4,1.1,0.5,0.2,0.3,0.3,0.3,0.3,0.4,0.5,0.4,0.4,1.087301546
104303,Bessborough,BC,237 Road,55.7919,-120.4836,665,8HR,0,6.6,0.6,0.5,0.5,0.3,0.3,0.3,0.2,0.3,0.3,0.3,0.4,0.4,0.4,0.39780268
104304,Farmington,BC,4794 Parkland Road,55.913779,-120.533749,696,8HR,0,0.6,,,,,,,,,,,,,,
105301,Langdale,BC,1551 Johnson Rd.,49.438848,-123.479185,90,8HR,0,9.4,0.3,0.3,0.6,0.7,0.6,1.1,0.8,0.9,0.4,0.7,0.5,0.4,0.6,0.702732719
105504,Fort St. John,BC,10511 99 Avenue,56.24473,-120.8561,679,8HR,0,3.1,0.3,0.4,0.6,0.3,0.3,0.2,0.2,0.2,0.1,0.3,0.3,0.2,0.3,0.313684481
106702,Crofton,BC,1427 Georgia Park Heights Rd,48.849649,-123.637031,150,8HR,0,143.1,,,1.6,1.9,2.9,2.1,10.6,11.5,8.3,4.1,1,0.6,,
129003,Yellowknife,NT,"52nd Ave. & 49th Street, Sir John Franklin High School",62.45207,-114.364,193,8HR,0,0.8,0.4,0.4,0.4,0.3,0.3,0.4,0.3,0.1,0,0,0,0.1,0.2,0.192886896
129102,Norman Wells,NT,#7 Forestry Road N. Wells,65.27926,-126.813057,60,8HR,0,0.8,0.1,0.2,0.3,0.5,0.6,0.7,0.1,0.3,0.5,0.7,0.7,0.7,0.4,0.282759478
129203,Inuvik,NT,"Bompas Road (Block21, Lot 4084)",68.35702,-133.714057,30,8HR,0,1,0.2,0.2,0.2,0.3,0.3,0.3,0.3,0.3,0.3,0.4,,0.6,0.3,0.151209973
129303,Iqaluit,NU,Water Lab (1307 Federal Road),63.751619,-68.522433,35,8HR,0,10.3,1.9,1.5,6.7,2.9,1.7,1.8,0.3,0.2,0.2,0.1,0.2,0.2,1.5,2.245449765
129601,Fort Smith,NT,95 Conibear Crescent,60.00455,-111.893241,358,8HR,0,1,0.1,0.1,0.1,0.2,0.5,0.1,0.1,0.4,0.4,0.5,0.2,0.3,0.2,0.275615977
************24HR************,,,,,,,,,,,,,,,,,,,,,,,
NAPS ID,City,P/T,Location,Latitude,Longitude,Elevation,ID,Minimum,Maximum,January,February,March,April,May,June,July,August,September,October,November,December,Mean,Standard Deviation
010102,St. John's,NL,354 Water Street,47.56038,-52.71147,7,24HR,0,4.6,0.5,0.4,0.4,0.7,0.8,1.1,1.6,2.1,1.1,1,0.4,0.7,0.9,0.627683675
010401,Mount Pearl,NL,Old Placentia Road,47.50513,-52.79476,135,24HR,0.3,2.8,1.2,1,0.9,1,1.1,1.1,1.1,0.8,0.7,0.8,0.7,0.8,0.9,0.418782386
010501,Grand Falls - Windsor,NL,Scott Avenue,48.92696,-55.65966,62,24HR,0,1,0.4,0.3,0.5,0.7,0.5,0.4,0.7,0.7,0.3,0.5,0.6,0.4,0.5,0.219977682
010602,Corner Brook,NL,Macpherson Ave,48.95224,-57.92207,100,24HR,0.1,3.3,0.6,0.4,0.4,,,0.8,0.8,0.8,0.7,0.6,0.7,0.7,,
010901,Burin,NL,18 Hwy 220 (Main St.),47.09899,-55.19852,1,24HR,0,0.4,0.1,0.1,0.1,0.1,0.1,0.1,0.1,0.1,0,0.1,0.1,0.1,0.1,0.050659228
011002,Labrador City,NL,317 Hudson Drive,52.945487,-66.910306,558,24HR,0.1,13.8,0.4,0.5,1.7,0.5,0.2,0.6,0.3,0.3,0.3,0.9,0.9,0.6,0.6,1.120757073
020104,Charlottetown,PE,3 Brighton Road,46.233,-63.13667,21,24HR,0,4,0.6,0.3,0.3,0.2,0.2,0.1,0.1,0.1,0,0.1,,0.2,0.2,0.297405512
030113,Halifax,NS,1672 Granville Street,44.64711,-63.57366,28,24HR,0,5.6,0.4,0.1,0.2,0.2,0.2,0.2,0.2,0.3,0.4,0.3,0.6,0.8,0.3,0.412666574
030118,Halifax,NS,1649 Barrington Street,44.646425,-63.573383,18,24HR,0,1.9,,,,,,,,,,,,,,
030120,Dartmouth,NS,341 Cherrybrook Road,44.7198,-63.48076,68,24HR,0,3.4,0.3,0.3,0.4,0.2,0.2,0.3,0.3,0.3,0.2,0.1,0.3,1.1,0.3,0.370890544
030201,Port Hawkesbury,NS,18 Embree Street,45.614161,-61.362356,14,24HR,0,17,0.6,0.7,0.4,0.9,1.3,1.3,1.3,0.6,1.1,0.7,0.5,0.6,0.8,1.484308856
030310,Sydney,NS,71 Welton Street,46.14222,-60.17252,27,24HR,0,11.7,0.4,0.4,1.5,1,0.5,0.5,0.2,0.3,0.6,0.3,0.4,0.3,0.5,1.106348716
030901,Pictou,NS,91 Beeches Road,45.681744,-62.696575,12,24HR,0,5.2,0.3,0.5,0.5,0.6,0.3,0.2,0.1,0.2,0.3,0.3,0.3,0.8,0.4,0.51031593
040203,Saint John,NB,Mountain Road,45.308762,-66.008384,41,24HR,0,24.5,0.6,0.8,0.4,2.7,4,4.1,4.4,3.7,2.3,0.2,0.2,0.4,2,3.297508683
040207,Saint John,NB,476 Lancaster Avenue W.,45.252898,-66.080065,59,24HR,0,17.6,1,0.7,0.8,0.6,0.3,0.8,0.2,0.2,0.3,0.9,1.1,2.5,0.8,1.51244404
040208,Saint John,NB,111 Champlain Drive,45.291218,-66.00305,47,24HR,0,29.3,1.9,1.3,0.3,1.5,1.1,0.4,0.3,0.5,1.1,0.4,2.1,1.4,1,2.45083401
040209,Saint John,NB,8 Castle Street,45.28028,-66.05611,41,24HR,0,6.2,0.6,0.5,0.4,0.7,0.5,0.2,0.1,0.1,0.2,0.1,0.7,0.3,0.4,0.694702576
041501,Edmundston,NB,19 Queen St.,47.363195,-68.322302,159,24HR,0,34.1,2.8,2.1,2,1.8,3.4,3.2,2.8,1.5,1.8,2.6,1.7,4.6,2.5,4.168175769
050103,Montréal,QC,"1050 A, Boul. Saint-Jean-Baptiste",45.641026,-73.499682,19,24HR,0,12.4,1.4,0.9,1.3,1.2,1.1,1.3,0.9,1,0.7,1.4,1.3,0.8,1.1,1.281167973
050122,Brossard,QC,En Face Du 8400 Avenue Sorbonne,45.448663,-73.480819,17,24HR,0,1.8,0.3,0.3,0.2,0.2,0.4,0.5,0.3,0.2,0.2,0.1,0.1,0.1,0.2,0.269116923
050126,Montréal,QC,20965 Ch. Sainte-Marie,45.426542,-73.928929,39,24HR,0,2.4,0.7,0.5,0.3,0.3,0.4,0.3,0.3,0.3,0.3,0.3,0.3,0.4,0.4,0.335670246
050133,Montréal,QC,"8200a Rue Chenier, Arena Chenier",45.60176,-73.541992,41,24HR,0,5,1.2,0.7,0.8,0.3,0.6,0.4,0.4,0.5,0.6,0.3,0.2,0.4,0.5,0.677961189
050134,Montréal,QC,2580 Saint-Joseph Est,45.54271,-73.57176,53,24HR,0,4.6,1.3,1.1,0.9,0.7,1,0.7,0.7,0.8,0.8,0.5,0.3,0.4,0.8,0.653132443
050136,Montréal,QC,75 Rue Ontario Est,45.512189,-73.566842,32,24HR,0,4.2,0.5,0.5,0.3,0.2,0.7,0.4,0.3,0.2,0.3,0.1,0.1,0.1,0.3,0.45362818
050204,Gatineau,QC,"255 St-Redempteur, Hull",45.435987,-75.723429,62,24HR,0,0.8,0.1,0.1,0.1,0.1,0.1,0.1,0.1,0,0.1,0.1,0.1,0.1,0.1,0.087762094
050308,Québec,QC,600 Rue Des Sables,46.821177,-71.220495,8,24HR,0,1.8,0.3,0.2,0.2,0.2,0.3,0.2,0.3,,0.2,0.4,0.5,0.5,0.3,0.22494502
050604,Rouyn-Noranda,QC,1570 Rue Paradis,48.234087,-78.982778,289,24HR,0,24.3,2.1,1.3,1.4,1.2,1.1,0.5,0.9,1,1.5,2,1.9,1.5,1.4,2.914105559
050803,Trois Rivières,QC,Rue Whitehead,46.357175,-72.546187,12,24HR,0,1.6,0.2,0.3,0.3,0.2,0.3,0.2,0.2,0.1,0.2,0.1,0.3,0.2,0.2,0.209700957
050902,Saguenay,QC,"2885 Berthier (Arvida), Jonquiere",48.43389,-71.18454,93,24HR,0.1,48.9,4.8,4.4,5.6,4.7,5,4.2,3.7,2.9,6.1,6.6,10,5.6,5.3,8.2614571
054401,Saint-Anicet,QC,1128 De La Guerre,45.120624,-74.2896,50,24HR,0,6.9,1,0.5,0.5,,0.5,0.3,0.2,0.2,0.3,0.4,0.4,0.3,0.4,0.648300384
055702,Lévis,QC,200 Rue Des Commandeurs,46.806029,-71.167506,106,24HR,0,1.9,0.4,0.5,0.2,0.3,0.3,0.4,0.4,0.3,0.2,0.2,0.3,0.4,0.3,0.302418276
060104,Ottawa,ON,Rideau & Wurtemburg,45.43433,-75.676,68,24HR,0.1,1.1,0.3,0.3,0.2,0.1,0.2,0.1,0.1,0.1,0.1,0.2,0.2,0.2,0.2,0.12293498
060204,Windsor,ON,467 University Ave. West,42.315778,-83.043667,176,24HR,-0.2,12.6,2.1,0.9,0.4,0.5,0.8,0.7,0.3,0.4,0.1,0.4,0.2,0.3,0.6,1.184971749
060211,Windsor,ON,College & South St. / 928 South St.,42.292889,-83.073139,180,24HR,-0.2,6.9,1.1,0.8,0.5,0.6,0.7,1,0.7,0.9,0.4,0.6,0.8,0.6,0.7,0.75080963
060430,Toronto,ON,125 Resources Road,43.709444,-79.5435,141,24HR,0,2.5,1,0.5,0.2,0.3,0.4,0.3,0.3,0.1,0.1,0.2,0.2,0.2,0.3,0.396236981
060438,Toronto,ON,401w - 125 Resources Rd.,43.711106,-79.543425,139,24HR,0,2.2,0.3,0.2,0.3,0.3,0.4,0.4,0.4,0.2,0.2,0.3,0.3,0.2,0.3,0.271521341
060440,Toronto,ON,4905 Dufferin Street,43.78042,-79.46752,,24HR,0,3.2,0.4,0.3,0.2,0.2,0.3,0.3,0.3,0.2,0.2,0.3,0.2,0.1,0.3,0.322069922
060512,Hamilton,ON,Elgin & Kelly,43.25778,-79.86167,90,24HR,0.1,52.8,1.3,2.6,3.9,5.3,15.7,11.3,5.6,3.7,5.4,2.2,1.2,1.8,5,7.547779125
060513,Hamilton,ON,Vickers Rd. & East 18th. St.,43.22942,-79.86278,209,24HR,0.1,26.7,1.1,0.9,1.9,2.2,7.3,4.3,2.8,2,1.9,1.3,0.7,,2.4,3.334462724
060610,Sudbury,ON,155 Elm Street,46.49194,-81.00311,271,24HR,0,13.8,1.5,1.8,1.1,1.9,0.9,1,1.2,0.8,0.9,1.2,1.2,1.2,1.2,1.495170466
060709,Sault Ste. Marie,ON,"443 Northern Ave., Sault College",46.53319,-84.30992,244,24HR,0,18.5,1.1,1.2,0.6,0.8,1.4,0.6,0.9,0.7,0.3,0.5,0.5,1,0.8,1.310722571
061007,Sarnia,ON,1300 Tashmoo Ave./ Lasalle Line,42.912545,-82.416816,180,24HR,-0.2,24.1,1.5,0.8,2,1.7,3.8,2.8,1.6,1,0.7,0.8,0.7,0.6,1.5,2.390648092
061009,Sarnia,ON,700 Christina St. N.,42.990263,-82.395341,182,24HR,-0.1,29.7,4,2.6,0.6,1.1,3.7,1.3,1.9,2,1.5,1.9,1,1.5,1.9,3.561405391
062601,Simcoe,ON,Experimental Farm,42.85685,-80.26964,236,24HR,-0.5,3.5,0.3,0.4,0.4,0.5,1.2,1.2,1.3,1.2,0.5,-0.2,-0.3,-0.4,0.5,0.664117586
080111,Regina,SK,1621 Albert St.,50.4527,-104.616,585,24HR,0,4.2,0.2,0.1,0.2,0.2,0.4,0.3,0.2,0.5,0.4,0.4,0.2,0.6,0.3,0.344804887
080211,Saskatoon,SK,511 1st Avenue North,52.13613,-106.66293,483,24HR,0,0.9,0.2,0.2,0.2,0.2,0.1,0.1,0.1,0.1,0.1,0.1,0.1,0.1,0.1,0.095017669
080402,Prince Albert,SK,63 - 12th Street East,53.201694,-105.75203,436,24HR,0,0.9,0.3,0.2,0.2,0.2,0.1,0.1,0.1,0.2,0.3,0.2,0.4,0.6,0.2,0.168177281
080502,Estevan,SK,528 1a Street,49.13235,-102.98499,563,24HR,0,20.1,1.6,2.7,2.6,2.2,1.3,0.9,0.8,1.6,0.9,1.3,0.5,1.7,1.5,2.257811142
081001,Swift Current,SK,1200 Begg St. W,50.285833,-107.81689,753,24HR,0,3.5,0.4,0.4,0.4,0.2,0.2,0.1,0.1,0.1,0.1,0.1,0.1,0.2,0.2,0.284735818
082002,Buffalo Narrows,SK,Buffalo Narrows Forest Protection Base,55.834566,-108.403332,425,24HR,0,1.7,0.5,0.4,0.2,0.5,0.5,0.4,0.4,0.2,0.2,0.2,0.2,0.3,0.3,0.197930012
090120,Edmonton,AB,6240 113 Street,53.50022,-113.526056,681,24HR,0,3.9,0.6,0.5,0.9,0.4,0.3,0.2,0.4,0.4,0.2,0.3,0.2,0.3,0.4,0.477229523
090121,Edmonton,AB,17 Street & 105 Avenue,53.54823,-113.36811,670,24HR,0,13.9,0.6,0.8,1.2,0.7,1.2,1,1.5,1.5,0.9,0.6,0.6,0.5,0.9,1.181454236
090133,Edmonton,AB,13915 115 Avenue Nw,53.564411,-113.562583,670,24HR,0,5.1,0.4,0.5,1,0.7,0.4,0.4,0.4,0.4,0.1,0.3,0.2,0.3,0.4,0.477395182
090134,Sherwood Park,AB,Ottwell House Park,53.532092,-113.320983,709,24HR,0,10.9,1.4,1.9,1.4,1.1,1.1,1.2,1.5,1.8,1.1,1.5,0.7,1.1,1.3,1.403533054
090135,Ardrossan,AB,3 Avenue,53.554691,-113.144905,707,24HR,0,7.1,1,1.6,0.9,0.5,0.2,0.5,,,0.3,0.7,0.8,0.8,,
090229,Calgary,AB,4700 110 Avenue Se,50.955122,-113.969742,1032,24HR,0,2.8,0.6,0.5,0.4,0.2,0.2,0.2,0.5,1,0.1,0.4,0.4,0.5,0.4,0.453408324
090302,Red Deer,AB,73 Street & Riverside Drive,52.29867,-113.79352,858,24HR,0,2,0.4,0.4,0.3,0.2,0.1,0,0.1,0.1,0,0.1,0,0.1,0.2,0.252772924
090304,Red Deer,AB,11 Lancaster Drive,52.24095,-113.765439,907,24HR,0,3,0.8,0.6,0.7,0.4,0.2,0.2,0.3,0.4,0.1,0.4,0.6,0.8,0.4,0.410143133
090502,Lethbridge,AB,28 Street & 12 Avenue N.,49.71621,-112.8006,918,24HR,0,0.4,0,0,0,0,0,0,0,0,0,0,0,0,0,0.062086255
090601,Fort Saskatchewan,AB,9209a-96 Ave,53.69874,-113.22285,628,24HR,0,3.5,0.3,0.6,0.6,0.3,0.3,0.3,0.5,0.5,0.3,0.4,0.3,0.4,0.4,0.509938375
090603,Fort Saskatchewan,AB,100 Ave East Of 109st.,53.71622,-113.19994,620,24HR,0,4.7,0.4,0.7,0.7,0.4,0.5,0.3,0.5,0.5,0.7,0.3,0.4,0.5,0.5,0.646203615
090607,Gibbons,AB,Behind 4807 50 Ave,53.827241,-113.327174,673,24HR,0,5.1,0.7,0.5,1.1,0.6,0.2,0.5,0.5,0.3,0.5,0.5,0.3,0.9,0.6,0.644405649
090608,Redwater,AB,4704-49 Ave,53.95183,-113.105857,627,24HR,0,4.1,0.3,0.5,0.6,0.5,0.3,0.5,0.4,0.3,0.2,0.5,0.2,0.3,0.4,0.561787329
090609,Bruderheim,AB,5321 48 Street,53.805629,-112.925851,630,24HR,0,6.6,0.7,1.4,0.5,0.6,0.6,1,1,1.4,0.5,1.2,1,1.3,0.9,0.959747914
090701,Fort Mcmurray,AB,Macdonald Dr.,56.73341,-111.39047,260,24HR,0,5.3,0.5,0.6,0.8,0.5,0.2,0.2,0.5,0.8,0.5,0.3,0.2,0.4,0.5,0.752631567
090702,Fort Mcmurray,AB,Timberlea Subdivision,56.75139,-111.47662,355,24HR,0,10.3,1,0.9,1.5,0.6,0.3,0.5,0.8,0.6,0.7,0.6,0.6,0.7,0.7,1.112487908
090801,Fort Mckay,AB,Main Street,57.18941,-111.6405,268,24HR,0,11.9,0.9,0.5,1.7,0.7,0.8,0.5,0.6,0.5,0.4,1.3,0.4,0.6,0.7,1.334140971
090802,Fort Mckay,AB,Lower Camp,57.02681,-111.5007,247,24HR,0,26.9,1,1.6,1.8,2.4,2.8,2.3,1.6,1.9,2.8,3.7,1.8,1.2,2.1,2.750333089
090805,Fort Mckay,AB,Buffalo Viewpoint,56.99647,-111.59295,336,24HR,0,15.7,0.4,0.4,0.5,0.7,1.2,1.2,0.4,0.7,1.1,0.8,0.3,0.3,0.7,1.495519248
090806,Fort Mckay,AB,4-13-094-11 W4,57.1492,-111.6424,342,24HR,0,10,0.8,0.3,1.3,0.7,0.8,0.5,0.6,0.5,0.6,1.2,0.6,0.7,0.7,1.150418544
090807,Wapasu,AB,Located Oustide Approval Boundaries At Pti Camp,57.26176,-111.037,429,24HR,0,9.3,1.3,1.1,0.8,0.3,0.7,0.8,0.6,0.9,0.6,0.8,0.5,2.2,0.9,1.343051719
090808,Conklin,AB,1-33-076-08 W4,55.621408,-111.17269,673,24HR,0,5.3,0.8,0.5,0.5,0.4,0.2,0.2,0.1,0.1,0.1,0.3,0.4,0.6,0.3,0.472308327
091101,Elk Island,AB,National Park,53.68238,-112.86812,714,24HR,0,4,0.6,0.9,0.5,0.4,0.3,0.3,0.4,0.7,0.3,0.5,0.6,0.6,0.5,0.5571649
091301,Tomahawk,AB,Se 2 51 6 W5,53.37255,-114.76835,789,24HR,0,2.8,0.3,0.3,0.6,0.3,0.1,0.1,0.2,0.1,0.2,0.2,0.1,0.1,0.2,0.41166824
091401,Violet Grove,AB,Se 17 48 08 W5,53.14222,-115.13806,1000,24HR,0,3.7,0.4,0.4,0.4,0.3,0.1,0,0.1,0.1,0.1,0.1,0.1,0.2,0.2,0.399995265
091501,Beaverlodge,AB,Beaverlodge Research Farm,55.19634,-119.39682,762,24HR,0,4.8,0.4,0.5,0.8,0.5,0.1,0.1,0.2,0.4,0.1,0,0.1,0.4,0.3,0.435979745
091601,Carrot Creek,AB,Se 31 53 13 W5,53.621062,-115.869155,800,24HR,0,2.6,0.2,0.3,0.4,0.1,0,0,0,0,0,0,0,0,0.1,0.279577112
091701,Steeper,AB,Ne 12 48 22 W5,53.1325,-117.09111,1400,24HR,0,2.1,0,0.1,0.2,0.2,0,0,0,0,0.1,0,0,0,0.1,0.176359827
091801,Fort Chipewyan,AB,Fort Chipewyan,58.70879,-111.17683,238,24HR,0,12.3,1,0.1,0.1,0,0,0,0,0,0.1,0.2,0.2,0.2,0.2,0.738615239
091901,Caroline,AB,16-30-034-5 W5,51.94687,-114.69744,1140,24HR,0.1,4.2,1.1,1.2,1.1,1.1,1.2,1.1,1.2,1.2,1.1,1.2,1.2,1.1,1.2,0.302459254
092001,Grande Prairie,AB,10327 - 107 Avenue,55.1766,-118.8078,658,24HR,0,5.4,0.7,0.8,0.6,0.6,0,0,0.2,0.1,,0.1,0.2,0.6,0.3,0.455872701
092201,Lamont,AB,Rge Rd 203 & Twp Rd 550,53.76036,-112.88017,767,24HR,0,7.4,1.1,1.5,0.9,0.5,0.5,0.9,1.1,1.4,0.5,1.3,1.1,1.6,1,1.066053309
092601,Breton,AB,Hwy 20,53.0903,-114.46061,900,24HR,0,5.2,0.4,0.3,0.6,0.3,0.2,0.2,0.1,0.4,0.1,0.1,0.3,0.1,0.3,0.46023134
092901,Edson,AB,7 Ave,53.593771,-116.395822,894,24HR,0,2.2,0.3,0.3,0.5,0.2,0.1,0.1,0.1,0.1,0,0.1,0,0,0.1,0.252378209
093001,Grande Prairie,AB,,55.1172,-118.7647,645,24HR,0,3.7,0.3,0.5,0.3,0.2,0.1,0.1,0.1,0.1,0,0.1,0.2,0.2,0.2,0.28633925
093101,Genesee,AB,Range Road 15,53.3016,-114.2211,772,24HR,0,6.8,0.5,0.5,0.4,0.5,1.2,1.2,1.1,1.2,0.4,0.6,0.3,0.4,0.7,0.855354242
093202,Hinton,AB,Private Road,53.427301,-117.544067,1215,24HR,0,8,0.3,1,0.4,0.4,0.6,0.6,0.4,0.3,0.2,0.2,0.5,0.5,0.4,0.880978485
093801,Warbug,AB,Range Road 34,53.53,-114.6361,753,24HR,0,8.7,0.5,0.2,1,0.9,0.2,0.3,0.3,0.1,,,0.2,0.2,0.4,0.864359025
093901,Thorsby,AB,Range Road 35,53.633,-114.4199,774,24HR,0,2.1,0.3,0.1,0.3,0.3,0.2,0.2,0.2,0.2,0,0.1,0,0.1,0.2,0.349509656
094001,Debolt,AB,Goodwin Road,55.402658,-118.280945,638,24HR,0,3.7,0.8,0.8,0.8,0.5,0.2,0.2,0.1,0.2,0.2,0.2,0.2,0.6,0.4,0.466244491
094202,Sunnybrook,AB,Township Road 514 & Range Road 33a,53.4243,-114.3749,684,24HR,0,4.5,0.3,0.6,0.5,0.6,1.2,0.7,1.1,0.5,0.4,0.6,0.2,0.3,0.6,0.746731978
094301,Cold Lake,AB,15 Ave,54.414014,-110.232939,556,24HR,0,1.8,0.2,0.3,0.1,0.2,0.1,0,0,0,0,0.1,0.1,0.1,0.1,0.189271224
094401,St Lina,AB,North Of Township Road 604 On Ab-867,54.2165,-111.5026,679,24HR,0,2.7,0.5,0.4,0.5,0.4,0.1,0.2,0.1,0.3,0,0.1,0.1,0.3,0.3,0.360941821
094601,Anzac,AB,264 Stony Mountain Rd.,56.44928,-111.03722,497,24HR,0,5.7,0.8,0.6,0.7,0.4,0.2,0.2,0.3,0.2,0.2,0.4,0.5,0.7,0.4,0.636992159
100110,Metro Vancouver - Burnaby,BC,700 Hammarskjold Drive,49.279214,-122.970707,104,24HR,0,1.5,0.1,0.1,0.1,0.3,0.4,0.3,0.4,0.6,0.3,0.3,0.1,0.1,0.3,0.264853102
100111,Metro Vancouver - Port Moody,BC,Moody Street & Esplanade Avenue,49.280893,-122.849291,6,24HR,0,2.6,0.1,0.1,0.1,0.5,0.9,0.4,0.8,0.6,0.5,0.5,0.3,0.1,0.4,0.443331239
100112,Metro Vancouver - Vancouver,BC,Robson/Hornby,49.282272,-123.12188,32,24HR,0,2.2,0.4,0.2,0.2,0.5,0.4,0.4,0.5,0.8,0.5,0.5,0.3,0.3,0.4,0.336310058
100119,Metro Vancouver - Burnaby,BC,5455 Rumble Street,49.21519,-122.985666,122,24HR,0,1.9,0.2,0.2,0.2,0.2,0.4,0.3,0.5,0.7,0.3,0.3,0.3,0.1,0.3,0.265167486
100121,Metro Vancouver - North Vancouver,BC,75 Riverside Dr.,49.301472,-123.020417,4,24HR,0,1.9,0.2,0.1,0.2,0.3,0.5,0.4,0.4,0.7,0.3,0.3,0.2,0.1,0.3,0.250035063
100128,Metro Vancouver - Richmond,BC,10371 Aragon Rd,49.141437,-123.108215,4,24HR,0,1.3,0.2,0.1,0.2,0.1,0.2,0.2,0.3,0.4,0.4,0.4,0.3,0.3,0.3,0.22144272
100132,Metro Vancouver - North Vancouver,BC,16th St. & Jones Ave,49.323994,-123.083496,71,24HR,0,3.2,0.3,0.1,0.2,0.4,0.4,0.3,0.5,0.5,0.3,0.3,0.1,0.1,0.3,0.27963225
100134,Metro Vancouver - Richmond,BC,3153 Templeton Street,49.186265,-123.152422,1,24HR,0,2.6,0.3,0.3,0.3,0.4,0.5,0.5,0.7,0.8,0.4,0.5,0.4,0.4,0.5,0.320522245
100136,Metro Vancouver - Burnaby,BC,Grosvenor Cresent,49.287869,-122.98563,200,24HR,0,11.1,1.1,0.1,0.1,0.6,0.8,0.4,0.9,0.8,0.5,1.1,0.5,0.4,0.6,1.074744741
100137,Metro Vancouver - Burnaby,BC,Eton And Madison Ave. Burnaby,49.287483,-123.007975,70,24HR,0,5.2,1.3,0.3,0.1,1.1,0.8,0.5,0.7,0.8,0.5,0.6,0.4,0.6,0.6,0.617366741
100140,Metro Vancouver - Delta,BC,411 Milsom Wynd,49.009877,-123.081997,52,24HR,0,2,0.2,0.3,0.3,0.3,0.4,0.2,0.4,0.4,0.2,0.4,0.3,0.2,0.3,0.2106283
100141,Metro Vancouver - Vancouver,BC,1290 East 11th Ave.,49.260267,-123.077776,30,24HR,0.1,13.6,0.5,0.4,0.3,0.8,0.6,0.5,0.6,0.8,0.5,0.5,0.5,0.4,0.6,0.720041301
100202,Prince George,BC,"Plaza 400, 1011 4th Avenue",53.91472,-122.74194,588,24HR,0,14.9,,1.8,1.1,1.5,1.3,1.5,1.7,1.3,1.5,1.5,1,1,1.4,1.946988724
100210,Prince George,BC,,53.90333,-122.70361,733,24HR,0,51.2,5.6,4.1,4.2,5,3.9,2.3,3.5,3.3,5.5,3.6,0.7,2.4,3.7,6.376259101
100211,Prince George,BC,775 E Highway 16,53.908008,-122.713344,616,24HR,0,33.4,3.4,3.4,3.7,4.8,3.9,1.9,2.8,2.5,6.4,2.8,1,2.8,3.3,4.834013887
100212,Prince George,BC,"Marsulex Acid Plant, 8901 Penn Road",53.8416,-122.7344,604,24HR,0,10.3,2.8,1.7,1,1.4,1.5,1.3,1.5,0.8,1.2,0.9,0.4,0.4,1.2,1.461283375
100304,Victoria,BC,"Sj Willis School, 923 Topaz Ave.",48.441942,-123.363165,29,24HR,0,1.4,0.2,0.2,0.2,0.2,0.2,0.2,0.5,0.5,0.3,0.5,0.3,0.2,0.3,0.256396764
100318,Victoria,BC,21 Erie St.,48.421417,-123.384178,0,24HR,0.1,0.7,0.1,,0.2,0.1,0.2,0.2,0.2,0.2,0.1,0.2,,0.2,0.2,0.10290726
100401,Kamloops,BC,317 Seymour St.,50.67477,-120.334016,381,24HR,0,3.2,0.2,0.3,0.2,0.2,0.1,0.1,0.2,0.5,0.1,0.2,0.2,0.2,0.2,0.24631422
100701,Kelowna,BC,3333 College Way,49.862336,-119.477367,347,24HR,0,1.1,0.4,0.3,0.4,0.4,0.4,0.3,0.4,0.5,0.3,0.4,0.5,0.4,0.4,0.115442331
101003,Abbotsford,BC,32995 Bevan Ave.,49.042579,-122.309821,58,24HR,0,1.7,0.1,0.2,0.2,0.1,0.2,0.2,0.4,0.4,0.1,0.2,0.1,0.1,0.2,0.209372703
101005,Abbotsford,BC,1073 Columbia Street,49.021554,-122.326523,65,24HR,0,1.3,0,0.1,0.1,0.1,0.2,0.2,0.4,0.3,0.2,0.2,0.1,0.1,0.2,0.161322281
101101,Metro Vancouver - Chilliwack,BC,46360 Airport Road,49.155848,-121.940279,12,24HR,0,1.2,0,0.1,0.1,0.1,0.2,0.1,0.3,0.4,0.2,0.1,0,0,0.1,0.155733363
101202,Metro Vancouver - Pitt Meadows,BC,18477 Dewdny Trunk,49.245233,-122.70889,5,24HR,0,1.7,0.3,0.2,0.3,0.3,0.3,0.2,0.4,0.4,0.3,0.5,0.4,0.4,0.3,0.248379724
101301,Metro Vancouver - Langley,BC,23752 52nd Avenue,49.095613,-122.567104,88,24HR,0,1,0,0.1,0.1,0.2,0.2,0.2,0.3,0.2,0.1,0.1,0.1,0,0.1,0.147881252
101603,Squamish,BC,38370 Buckley Avenue,49.70516,-123.15133,6,24HR,0,1.2,0.3,0.2,0.2,0.2,0.3,0.2,0.3,0.3,0.3,0.3,0.2,0.2,0.2,0.15029423
101701,Quesnel,BC,585 Callanan Street,52.981686,-122.493227,490,24HR,0,2.8,0.1,0.1,0.2,0.3,0.3,0.4,0.7,0.4,0.3,0.3,0.2,0.2,0.3,0.312177405
102201,Trail,BC,1875 Columbia Ave.,49.096218,-117.697828,422,24HR,0,39.9,5.9,4.5,8.7,7.2,7.8,4.5,8,5,5.7,5.3,5.7,5.3,6.2,5.338038959
102210,Trail,BC,8995 Highway 22a,49.046405,-117.60711,0,24HR,0,20.8,6.3,2.4,6.1,3.2,3.7,1.5,3.3,3.9,3,2.5,2.8,5.5,3.7,3.827774502
102220,Trail,BC,395 Schofield Highway,49.0952,-117.7469,0,24HR,0,59.1,4.8,8.1,8.5,4.1,5.7,7.5,7.5,6.2,4.2,2.2,6.6,6.3,5.9,7.187118363
102230,Trail,BC,S End,49.157855,-117.73312,0,24HR,0,64.4,8.2,7.8,6.4,3.8,1.5,3,3.1,3.1,1.7,2.1,12.9,12.9,5.7,8.065089865
102503,Terrace,BC,3411 Munroe Street,54.52167,-128.6075,81,24HR,0,2.2,0.1,0.4,0.4,0.3,0.5,0.7,0.6,0.7,0.4,0.3,0.3,0.3,0.4,0.410355419
102701,Williams Lake,BC,1045 Western Avenue,52.14428,-122.150391,631,24HR,0,1,,0.2,0.2,0.2,0.2,0.2,0.3,0.4,0.2,0.2,0.2,0.2,0.2,0.113036857
103502,Castlegar,BC,801 9th Avenue,49.317698,-117.661527,407,24HR,0,26.7,2.4,2.8,1.1,1.1,0.4,0.8,1,1.1,0.9,0.4,3.9,3.7,1.6,2.73683802
103702,Pine River,BC,Gas Plant Site,55.574531,-121.921247,1159,24HR,0,32.4,3.3,3.8,3.1,2.8,5.8,5.8,3.8,6.4,1.4,0.5,0.3,0.9,3.2,4.085450354
103704,Pine River,BC,Pine River Gas Plant,55.6056,-121.9722,610,24HR,0,1.6,0.3,0.2,0.3,0.3,0.2,0.1,0.2,0.3,0.2,0.2,0.2,0.2,0.2,0.188075461
103901,Kitimat,BC,651 Columbia Ave W,54.05389,-128.671436,18,24HR,0,5.9,0.1,0.4,0.6,0.5,0.8,0.8,0.7,0.5,0.5,0.4,0.2,0.3,0.5,0.724625858
103902,Kitimat,BC,Haulage Road,54.029194,-128.70269,11,24HR,0,42.4,1.3,4.9,3.3,2.3,3.6,4.6,4.7,8.3,2.8,2.6,2.8,3.2,3.7,4.695711652
103904,Kitimat,BC,1332 Lahakas Blvd North,54.066909,-128.639131,94,24HR,0,3.9,0,0.2,0.4,0.3,0.7,0.6,0.5,0.3,0.3,0.2,0.3,0.2,0.3,0.508018925
103905,Kitimat,BC,347 Haisla Avenue,53.973228,-128.650768,5,24HR,0,3.5,0,0.1,0.4,0.1,0.3,0.2,0.3,0.2,0.2,0.2,0.2,0.1,0.2,0.361012911
104301,Taylor,BC,Mcmahon Complex,56.150186,-120.686985,474,24HR,0,9.4,1.1,0.6,1.3,1.1,0.7,0.8,0.4,0.6,1.3,1.2,0.7,0.7,0.9,1.284254169
104302,Taylor,BC,Pingle Creek Road,56.105871,-120.662779,689,24HR,0,6.9,0.4,0.4,1.1,0.5,0.2,0.3,0.3,0.3,0.2,0.4,0.5,0.4,0.4,0.699265979
104303,Bessborough,BC,237 Road,55.7919,-120.4836,665,24HR,0,2.5,0.6,0.5,0.5,0.3,0.3,0.3,0.2,0.3,0.3,0.3,0.4,0.4,0.4,0.285137148
104304,Farmington,BC,4794 Parkland Road,55.913779,-120.533749,696,24HR,0.1,0.3,,,,,,,,,,,,,,
105301,Langdale,BC,1551 Johnson Rd.,49.438848,-123.479185,90,24HR,0,4.5,0.3,0.3,0.6,0.7,0.6,1.1,0.8,0.9,0.4,0.7,0.5,0.4,0.6,0.508294043
105504,Fort St. John,BC,10511 99 Avenue,56.24473,-120.8561,679,24HR,0,2,0.3,0.4,0.6,0.3,0.3,0.2,0.2,0.2,0.1,0.3,0.3,0.2,0.3,0.24699857
106702,Crofton,BC,1427 Georgia Park Heights Rd,48.849649,-123.637031,150,24HR,0,88.9,,,1.6,1.9,2.9,2.1,10.6,11.5,8.2,4.1,1,0.6,,
129003,Yellowknife,NT,"52nd Ave. & 49th Street, Sir John Franklin High School",62.45207,-114.364,193,24HR,0,0.8,0.4,0.4,0.4,0.3,0.3,0.4,0.3,0.1,0,0,0,0.1,0.2,0.182585754
129102,Norman Wells,NT,#7 Forestry Road N. Wells,65.27926,-126.813057,60,24HR,0,0.8,0.1,0.2,0.3,0.5,0.6,0.7,0.1,0.3,0.5,0.7,0.6,0.7,0.4,0.274983347
129203,Inuvik,NT,"Bompas Road (Block21, Lot 4084)",68.35702,-133.714057,30,24HR,0,0.8,0.2,0.2,0.2,0.3,0.3,0.3,0.3,0.3,0.3,0.4,,0.6,0.3,0.139440909
129303,Iqaluit,NU,Water Lab (1307 Federal Road),63.751619,-68.522433,35,24HR,0,9.6,1.9,1.5,6.6,2.9,1.7,1.8,0.3,0.2,0.2,0.1,0.2,0.2,1.4,2.223911989
129601,Fort Smith,NT,95 Conibear Crescent,60.00455,-111.893241,358,24HR,0,0.9,0.1,0.1,0.1,0.2,0.5,0.1,0.1,0.4,0.4,0.5,0.2,0.2,0.2,0.250697903
************DMAX1HR************,,,,,,,,,,,,,,,,,,,,,,,
NAPS ID,City,P/T,Location,Latitude,Longitude,Elevation,ID,Minimum,Maximum,January,February,March,April,May,June,July,August,September,October,November,December,Mean,Standard Deviation
010102,St. John's,NL,354 Water Street,47.56038,-52.71147,7,DMax1HR,0.2,10.5,1.5,1.2,1,1.5,1.4,1.9,2.3,2.5,1.6,1.6,1,2.3,1.6,1.27993297
010401,Mount Pearl,NL,Old Placentia Road,47.50513,-52.79476,135,DMax1HR,0.6,7.9,2.3,2.5,2,2.5,2.4,2.2,2,1.6,1.5,2.1,2.1,1.9,2.1,0.998014097
010501,Grand Falls - Windsor,NL,Scott Avenue,48.92696,-55.65966,62,DMax1HR,0.1,2.9,0.6,0.7,0.7,0.9,0.7,0.5,0.9,0.8,0.4,0.7,0.8,0.6,0.7,0.293988779
010602,Corner Brook,NL,Macpherson Ave,48.95224,-57.92207,100,DMax1HR,0.1,11.8,0.8,0.6,0.6,,,1.2,1.4,0.9,0.9,0.8,0.9,0.9,,
010901,Burin,NL,18 Hwy 220 (Main St.),47.09899,-55.19852,1,DMax1HR,0,1,0.2,0.2,0.1,0.2,0.2,0.2,0.2,0.3,0.2,0.2,0.2,0.2,0.2,0.114720222
011002,Labrador City,NL,317 Hudson Drive,52.945487,-66.910306,558,DMax1HR,0.1,62.4,0.9,1.7,9.7,2.1,0.3,2.8,1.4,0.8,0.7,3.3,4.2,2.1,2.5,6.619689454
020104,Charlottetown,PE,3 Brighton Road,46.233,-63.13667,21,DMax1HR,0,16.3,2.2,1,0.9,0.6,0.5,0.3,0.3,0.3,0.2,0.3,,1,0.7,1.38898717
030113,Halifax,NS,1672 Granville Street,44.64711,-63.57366,28,DMax1HR,0,23.2,2,0.5,0.6,0.5,0.7,0.6,1.2,0.8,1.3,0.8,1.4,1.9,1,2.130252602
030118,Halifax,NS,1649 Barrington Street,44.646425,-63.573383,18,DMax1HR,0.4,5.2,,,,,,,,,,,,,,
030120,Dartmouth,NS,341 Cherrybrook Road,44.7198,-63.48076,68,DMax1HR,0,7.3,1.6,1.2,1.7,0.9,0.8,0.5,0.4,0.5,0.4,0.4,0.9,3.4,1.1,1.316918529
030201,Port Hawkesbury,NS,18 Embree Street,45.614161,-61.362356,14,DMax1HR,0.1,61.3,2.7,3.8,1.7,7.2,8.6,6.6,7.6,3.8,6,4.3,1.9,2.4,4.7,9.349428721
030310,Sydney,NS,71 Welton Street,46.14222,-60.17252,27,DMax1HR,0,85.1,2.7,3.4,6.7,8,2.2,2.6,1,0.6,4.3,1.6,1.4,1.1,3,9.58477915
030901,Pictou,NS,91 Beeches Road,45.681744,-62.696575,12,DMax1HR,0,32.6,1.7,4.3,1.2,4,1.3,0.5,0.6,0.8,1.4,2,2.3,3.4,1.9,4.304607763
040203,Saint John,NB,Mountain Road,45.308762,-66.008384,41,DMax1HR,0,64.2,2.6,3.9,1.9,10.3,17,13.7,14.6,17.4,10.2,2.5,1.5,2.2,8.2,11.60050116
040207,Saint John,NB,476 Lancaster Avenue W.,45.252898,-66.080065,59,DMax1HR,0,41.2,5.2,3.2,3.3,2.7,1.6,3.6,1.2,1.8,1.4,3.2,5.8,8,3.4,5.764631082
040208,Saint John,NB,111 Champlain Drive,45.291218,-66.00305,47,DMax1HR,0,115.4,7.9,7.6,2,8.2,11.3,3.6,2.6,4.3,9.3,3.2,8.8,6.8,6.3,12.15840266
040209,Saint John,NB,8 Castle Street,45.28028,-66.05611,41,DMax1HR,0,46.7,4.3,2.7,1.9,4.4,4.2,2.1,1.7,1.7,1.8,0.4,3.8,1.5,2.5,5.307861693
041501,Edmundston,NB,19 Queen St.,47.363195,-68.322302,159,DMax1HR,0,111.8,14.5,8.5,7.7,6.3,15.6,14.9,14.3,9.3,10.9,10.9,8.9,15.3,11.5,16.91534856
050103,Montréal,QC,"1050 A, Boul. Saint-Jean-Baptiste",45.641026,-73.499682,19,DMax1HR,0,43.5,6.4,3.9,7.3,6.6,5,6,4.2,4.6,3.5,7.1,7.1,4.8,5.6,7.056117149
050122,Brossard,QC,En Face Du 8400 Avenue Sorbonne,45.448663,-73.480819,17,DMax1HR,0,14.6,0.8,1,0.6,1.1,2.1,1.7,1.3,0.7,0.5,0.4,0.2,0.3,0.9,1.384897942
050126,Montréal,QC,20965 Ch. Sainte-Marie,45.426542,-73.928929,39,DMax1HR,0.1,12.8,1.7,1.6,0.9,2,1.6,2,1.1,1.4,1.5,1,0.9,1.1,1.4,1.758879049
050133,Montréal,QC,"8200a Rue Chenier, Arena Chenier",45.60176,-73.541992,41,DMax1HR,0,20.9,2.9,1.8,2.4,1.1,2.8,2.4,2.1,3,3.1,1.2,0.5,1.1,2,3.108524698
050134,Montréal,QC,2580 Saint-Joseph Est,45.54271,-73.57176,53,DMax1HR,0,25,3.1,2.8,2,1.3,3.3,2.5,3.2,3.9,4.4,1.4,1.5,1.1,2.5,3.070286891
050136,Montréal,QC,75 Rue Ontario Est,45.512189,-73.566842,32,DMax1HR,0,18.5,1.6,2,1,0.7,3.6,1.6,1.7,1.1,1.3,0.6,0.6,0.6,1.4,2.243313347
050204,Gatineau,QC,"255 St-Redempteur, Hull",45.435987,-75.723429,62,DMax1HR,0,6.9,0.6,0.5,0.2,0.2,0.5,0.3,0.2,0.1,0.1,0.5,0.2,0.2,0.3,0.540389028
050308,Québec,QC,600 Rue Des Sables,46.821177,-71.220495,8,DMax1HR,0.1,6,0.7,0.7,0.5,0.5,0.8,0.7,0.7,,0.5,1.3,1.4,1.6,0.9,0.874564096
050604,Rouyn-Noranda,QC,1570 Rue Paradis,48.234087,-78.982778,289,DMax1HR,0.1,152.8,9.9,9.4,11.6,9.9,9.3,4.2,6.4,7.8,12.8,12.2,9.7,12.5,9.6,18.72298641
050803,Trois Rivières,QC,Rue Whitehead,46.357175,-72.546187,12,DMax1HR,0.1,10,0.7,1,1.1,0.7,1.2,0.8,0.7,0.4,0.7,0.4,1.1,0.8,0.8,1.215475727
050902,Saguenay,QC,"2885 Berthier (Arvida), Jonquiere",48.43389,-71.18454,93,DMax1HR,0.1,117.9,17.4,18.9,22.6,15.9,23.2,16.7,16.9,14,22.1,24.3,27.4,19,19.9,22.72020395
054401,Saint-Anicet,QC,1128 De La Guerre,45.120624,-74.2896,50,DMax1HR,0,29,5.2,3.2,3.3,,3.3,2.4,0.7,0.9,1.5,2.1,1.4,1.9,2.3,4.317053146
055702,Lévis,QC,200 Rue Des Commandeurs,46.806029,-71.167506,106,DMax1HR,0,11.9,1.2,1.4,0.5,1,1,1.5,1.4,1.4,0.9,0.7,0.7,0.9,1,1.191882555
060104,Ottawa,ON,Rideau & Wurtemburg,45.43433,-75.676,68,DMax1HR,0.1,3.3,0.8,0.7,0.4,0.3,0.6,0.3,0.2,0.2,0.3,0.4,0.4,0.5,0.4,0.409428939
060204,Windsor,ON,467 University Ave. West,42.315778,-83.043667,176,DMax1HR,-0.2,27.1,6.8,3.9,3.5,3.9,5.3,3.6,2.2,2.2,0.8,2.7,1.1,1.9,3.1,4.697340729
060211,Windsor,ON,College & South St. / 928 South St.,42.292889,-83.073139,180,DMax1HR,-0.1,27.1,4.1,2.9,2.4,3.2,3.6,4.1,2.7,3.9,1.3,2.5,3.1,3.1,3.1,3.638682115
060430,Toronto,ON,125 Resources Road,43.709444,-79.5435,141,DMax1HR,0,10.2,2.2,1.2,0.5,1,1.3,1.9,1.1,0.4,0.4,0.6,0.6,0.7,1,1.429779474
060438,Toronto,ON,401w - 125 Resources Rd.,43.711106,-79.543425,139,DMax1HR,0,9,0.9,0.8,0.6,1,1.2,1.5,1,0.5,0.4,0.8,0.8,0.6,0.8,1.109621926
060440,Toronto,ON,4905 Dufferin Street,43.78042,-79.46752,,DMax1HR,0,22,1.3,1,0.6,1.3,1.1,1.1,1.2,0.8,0.7,0.9,0.6,0.5,0.9,1.635292752
060512,Hamilton,ON,Elgin & Kelly,43.25778,-79.86167,90,DMax1HR,0.3,136.9,5.4,11.8,15.2,19.5,49.7,36.6,20.6,14.9,22.4,7.5,5,7.3,18,24.09133521
060513,Hamilton,ON,Vickers Rd. & East 18th. St.,43.22942,-79.86278,209,DMax1HR,0.2,113.2,4,4.1,8.1,10.6,27.2,15.8,13.2,8.4,8.8,4.7,3.4,,9.9,13.46335309
060610,Sudbury,ON,155 Elm Street,46.49194,-81.00311,271,DMax1HR,0.1,52.3,8.4,9.1,8.2,11,5.5,6.8,6.4,6,7.1,7.6,7.8,5.7,7.4,9.552376324
060709,Sault Ste. Marie,ON,"443 Northern Ave., Sault College",46.53319,-84.30992,244,DMax1HR,0.1,64,6.3,7.8,4.3,5.2,8.7,3.6,8.4,4.4,1.5,2.7,3.9,4.4,5.1,8.969070592
061007,Sarnia,ON,1300 Tashmoo Ave./ Lasalle Line,42.912545,-82.416816,180,DMax1HR,-0.1,96.5,6.5,4.3,12.1,10.4,19.3,18.3,8.6,6.2,5.4,6.3,4.6,3.4,8.8,13.11555353
061009,Sarnia,ON,700 Christina St. N.,42.990263,-82.395341,182,DMax1HR,0,65,15.6,11.9,3,6.4,14.7,5.9,9.1,10.3,7.9,12.1,5.6,6.8,9.1,13.92343216
062601,Simcoe,ON,Experimental Farm,42.85685,-80.26964,236,DMax1HR,-0.4,11.9,0.6,1,0.9,1.5,3.1,2.3,2.1,1.6,0.9,0,0.1,-0.1,1.2,1.678156931
080111,Regina,SK,1621 Albert St.,50.4527,-104.616,585,DMax1HR,0,22.7,0.4,0.3,1,0.8,1.9,1,0.7,2.3,1.3,1,0.7,2.4,1.2,2.156173841
080211,Saskatoon,SK,511 1st Avenue North,52.13613,-106.66293,483,DMax1HR,0,4.5,0.4,0.5,0.4,0.4,0.3,0.2,0.2,0.3,0.2,0.2,0.2,0.2,0.3,0.370400428
080402,Prince Albert,SK,63 - 12th Street East,53.201694,-105.75203,436,DMax1HR,0,1.5,0.4,0.3,0.2,0.2,0.2,0.2,0.1,0.3,0.4,0.3,0.5,0.8,0.3,0.248223736
080502,Estevan,SK,528 1a Street,49.13235,-102.98499,563,DMax1HR,0.1,125,7.1,17.2,15.6,10.5,11.1,5.4,5.6,9.1,5.7,7.5,3.9,11.8,9.1,15.67118474
081001,Swift Current,SK,1200 Begg St. W,50.285833,-107.81689,753,DMax1HR,0,4.9,0.8,1,1.2,0.6,0.4,0.3,0.7,0.4,0.3,0.3,0.4,0.3,0.5,0.70898886
082002,Buffalo Narrows,SK,Buffalo Narrows Forest Protection Base,55.834566,-108.403332,425,DMax1HR,0,5,0.8,0.9,0.6,0.8,0.7,0.5,0.6,0.4,0.3,0.4,0.3,0.4,0.6,0.527794222
090120,Edmonton,AB,6240 113 Street,53.50022,-113.526056,681,DMax1HR,0,22,2,2.1,5,2.6,2.1,1.9,1.8,2.4,1.8,1.8,1.1,1.1,2.1,2.924044419
090121,Edmonton,AB,17 Street & 105 Avenue,53.54823,-113.36811,670,DMax1HR,0,69,4.7,4.8,8,4.7,6.8,6.8,9.5,7.5,5.2,3.7,4,2.4,5.7,7.526769684
090133,Edmonton,AB,13915 115 Avenue Nw,53.564411,-113.562583,670,DMax1HR,0,20,1.4,1.8,3.9,2.1,2.3,2.1,2.1,2.1,0.8,1.5,0.8,1.2,1.9,1.983696683
090134,Sherwood Park,AB,Ottwell House Park,53.532092,-113.320983,709,DMax1HR,0,64,7.1,10.4,6.6,6.4,6.5,7.7,7.2,8.2,5.2,9,4.1,5.2,7,8.130387434
090135,Ardrossan,AB,3 Avenue,53.554691,-113.144905,707,DMax1HR,0,32,4.6,7.4,5,2.9,2,3.4,,,1.8,3.8,4.1,4.3,,
090229,Calgary,AB,4700 110 Avenue Se,50.955122,-113.969742,1032,DMax1HR,0,9,1.8,1.6,1.6,0.8,1.5,1.1,1.7,2.5,0.5,1.9,1.3,1.4,1.5,1.404780671
090302,Red Deer,AB,73 Street & Riverside Drive,52.29867,-113.79352,858,DMax1HR,0,6,1.3,1.2,1.5,0.8,0.6,0.3,0.9,0.8,0.3,0.6,0.3,0.6,0.8,0.924822312
090304,Red Deer,AB,11 Lancaster Drive,52.24095,-113.765439,907,DMax1HR,0,12,1.5,1.7,2.4,1.3,0.9,0.8,1,1.4,0.6,1.2,1.2,1.6,1.3,1.264126091
090502,Lethbridge,AB,28 Street & 12 Avenue N.,49.71621,-112.8006,918,DMax1HR,0,3,0.3,0.3,0.3,0.2,0.5,0.1,0.3,0.3,0.3,0.2,0.1,0.1,0.2,0.509431823
090601,Fort Saskatchewan,AB,9209a-96 Ave,53.69874,-113.22285,628,DMax1HR,0,20,1.3,3,3.5,1.5,2.4,2.5,3.3,2.8,1.7,1.8,0.8,1.3,2.2,3.102022545
090603,Fort Saskatchewan,AB,100 Ave East Of 109st.,53.71622,-113.19994,620,DMax1HR,0,28,2.4,4.4,4.6,2.6,3.5,2.7,4.3,2.9,4.1,2.1,2.5,2.9,3.3,4.177161299
090607,Gibbons,AB,Behind 4807 50 Ave,53.827241,-113.327174,673,DMax1HR,0,45,2.6,2,5.9,3.6,2.3,3.2,3.9,1.9,1.7,2.6,2.1,2.8,2.9,4.230182215
090608,Redwater,AB,4704-49 Ave,53.95183,-113.105857,627,DMax1HR,0,33,1.9,2.9,3.5,4,2.3,3.5,3.8,2,2.2,3.1,1.2,2.1,2.7,4.149970262
090609,Bruderheim,AB,5321 48 Street,53.805629,-112.925851,630,DMax1HR,0,47,2.7,5.9,2.5,3.2,3.1,6.7,4.4,6,2.6,6.5,3.2,4.3,4.2,4.784285456
090701,Fort Mcmurray,AB,Macdonald Dr.,56.73341,-111.39047,260,DMax1HR,0,43,1.3,3.5,4.6,2.7,1.3,1.6,3.9,3.6,2.4,1.3,1.5,1.9,2.5,4.754358497
090702,Fort Mcmurray,AB,Timberlea Subdivision,56.75139,-111.47662,355,DMax1HR,0,32,4.3,4.6,6.3,3.5,1.9,2.3,4.6,3.4,3.5,2.8,2.9,3.1,3.6,5.274379748
090801,Fort Mckay,AB,Main Street,57.18941,-111.6405,268,DMax1HR,0,43,3.2,2.5,8.2,3,3.7,2.6,4.3,4,3.3,6.1,1.8,2.9,3.8,6.760915211
090802,Fort Mckay,AB,Lower Camp,57.02681,-111.5007,247,DMax1HR,0,124,5.6,9.1,11.7,15.2,17.4,20.4,10.6,11.2,19.3,21.7,12.1,7.1,13.5,18.63131678
090805,Fort Mckay,AB,Buffalo Viewpoint,56.99647,-111.59295,336,DMax1HR,0,100,1.5,2.3,3.7,5.7,8.4,10,3.4,5.2,5.3,5,1.4,3.2,4.5,10.00569307
090806,Fort Mckay,AB,4-13-094-11 W4,57.1492,-111.6424,342,DMax1HR,0,49,3.3,1.5,6.5,3.1,4.6,2.9,5.2,3.1,4.9,5.9,2.2,2.2,3.8,6.874633654
090807,Wapasu,AB,Located Oustide Approval Boundaries At Pti Camp,57.26176,-111.037,429,DMax1HR,0,36,5.4,5.1,4.1,1.6,3.7,4.8,3.1,3.8,3,3.2,2.4,7.6,4,5.543325986
090808,Conklin,AB,1-33-076-08 W4,55.621408,-111.17269,673,DMax1HR,0,13,2.3,2,1.6,1.3,0.8,0.8,0.5,0.5,0.6,1.3,1.7,2.4,1.3,1.459948051
091101,Elk Island,AB,National Park,53.68238,-112.86812,714,DMax1HR,0,26,2.9,4.5,2.7,2.4,2.2,2.5,3.2,4.2,1.7,2.9,3.1,3.4,3,3.234982132
091301,Tomahawk,AB,Se 2 51 6 W5,53.37255,-114.76835,789,DMax1HR,0,13,1.6,1.6,2.9,1.7,0.6,0.8,1.5,0.7,1.3,1.2,0.5,0.8,1.3,2.080868458
091401,Violet Grove,AB,Se 17 48 08 W5,53.14222,-115.13806,1000,DMax1HR,0,23,2.6,1.7,2.3,1.5,1,0.3,0.5,0.6,1,0.9,0.6,1.3,1.2,2.226883818
091501,Beaverlodge,AB,Beaverlodge Research Farm,55.19634,-119.39682,762,DMax1HR,0,18.8,1,1.4,2.6,1.4,0.6,0.5,0.8,0.9,0.4,0.3,0.3,0.9,0.9,1.570432791
091601,Carrot Creek,AB,Se 31 53 13 W5,53.621062,-115.869155,800,DMax1HR,0,6,1.1,1.4,1.4,0.6,0.3,0.3,0.1,0.1,0.2,0.2,0.1,0.1,0.5,1.011937334
091701,Steeper,AB,Ne 12 48 22 W5,53.1325,-117.09111,1400,DMax1HR,0,19,0.2,0.4,1.5,0.8,0.2,0.2,0.2,0.2,0.3,0.2,0.3,0.2,0.4,1.300943585
091801,Fort Chipewyan,AB,Fort Chipewyan,58.70879,-111.17683,238,DMax1HR,0,36,2.8,0.3,0.3,0.2,0.1,0.1,0.3,0.2,0.2,1.2,0.9,1,0.6,2.350303204
091901,Caroline,AB,16-30-034-5 W5,51.94687,-114.69744,1140,DMax1HR,1,15,2.4,2.8,3.2,2.4,2.6,1.9,2.3,2,1.9,2.3,2,1.8,2.3,1.827112729
092001,Grande Prairie,AB,10327 - 107 Avenue,55.1766,-118.8078,658,DMax1HR,0,16,1.6,2.6,1.6,1.6,0.4,0.5,0.9,0.7,,0.8,0.9,1.5,1.2,1.454960309
092201,Lamont,AB,Rge Rd 203 & Twp Rd 550,53.76036,-112.88017,767,DMax1HR,0,41,3.8,5.6,3.8,2.5,2.7,6,4.1,6.2,2.3,6.1,3.9,5.4,4.4,4.563041516
092601,Breton,AB,Hwy 20,53.0903,-114.46061,900,DMax1HR,0,17,1.8,1.2,2.9,2.1,0.9,1,1.1,1.9,0.8,0.6,1.7,1,1.4,2.180546097
092901,Edson,AB,7 Ave,53.593771,-116.395822,894,DMax1HR,0,5,1.3,1.8,1.7,1.1,0.5,0.6,0.8,0.6,0.1,0.6,0.2,0.2,0.8,1.017785323
093001,Grande Prairie,AB,,55.1172,-118.7647,645,DMax1HR,0,26,1.6,2.7,1.5,0.7,0.7,1,0.7,1,0.5,1,1.3,1.2,1.1,2.124465946
093101,Genesee,AB,Range Road 15,53.3016,-114.2211,772,DMax1HR,0,45,1.7,2.6,1.6,3.2,6.8,6.3,7,5.5,2.9,2.3,1,1.7,3.5,5.76226762
093202,Hinton,AB,Private Road,53.427301,-117.544067,1215,DMax1HR,0,81,1.4,5.2,2.6,2.4,3.5,3.5,2.4,2.4,0.9,1.4,4.2,3.2,2.7,5.604698926
093801,Warbug,AB,Range Road 34,53.53,-114.6361,753,DMax1HR,0,28,1.8,1.1,4.2,3.4,1.7,2.1,2.5,0.7,,,1.4,1,2,4.008385698
093901,Thorsby,AB,Range Road 35,53.633,-114.4199,774,DMax1HR,0,16,1.4,0.8,2.4,2.3,1.8,1.6,2.3,1.3,0.5,1,0.3,0.8,1.4,2.60420762
094001,Debolt,AB,Goodwin Road,55.402658,-118.280945,638,DMax1HR,0,22.6,2.5,2.9,2.9,2.3,1.2,1.5,0.9,1.4,1.1,1,0.9,1.8,1.7,2.065083987
094202,Sunnybrook,AB,Township Road 514 & Range Road 33a,53.4243,-114.3749,684,DMax1HR,0,27,1.8,3.5,3.3,4.4,7.8,5,6.3,3.5,3.7,5.5,1.9,1.7,4.1,4.838840756
094301,Cold Lake,AB,15 Ave,54.414014,-110.232939,556,DMax1HR,0,5,0.9,1.2,0.5,0.9,0.5,0.4,0.3,0.3,0.3,0.5,0.5,0.8,0.6,0.739388984
094401,St Lina,AB,North Of Township Road 604 On Ab-867,54.2165,-111.5026,679,DMax1HR,0,5,1.5,1.4,1.4,1.4,0.5,0.8,0.7,1.1,0.2,0.7,0.6,1.2,1,0.993868686
094601,Anzac,AB,264 Stony Mountain Rd.,56.44928,-111.03722,497,DMax1HR,0,20,2.8,3,3.4,2.1,1.1,0.9,1.6,1.3,1.4,1.7,2.1,3.4,2.1,2.830155478
100110,Metro Vancouver - Burnaby,BC,700 Hammarskjold Drive,49.279214,-122.970707,104,DMax1HR,0,9.1,0.5,0.2,0.4,1.2,1.5,1,1.7,1.7,1.2,1.4,0.6,0.3,1,1.170124991
100111,Metro Vancouver - Port Moody,BC,Moody Street & Esplanade Avenue,49.280893,-122.849291,6,DMax1HR,0,12,0.4,0.3,0.3,1.9,3,1.3,2.6,1.8,1.5,1.5,0.7,0.3,1.3,1.612859686
100112,Metro Vancouver - Vancouver,BC,Robson/Hornby,49.282272,-123.12188,32,DMax1HR,0.1,8.9,0.9,0.4,0.5,1.6,1.2,1.4,1.7,1.9,1.2,1,0.6,0.6,1.1,1.05488465
100119,Metro Vancouver - Burnaby,BC,5455 Rumble Street,49.21519,-122.985666,122,DMax1HR,0,9.1,0.4,0.3,0.5,0.6,1.2,0.9,1.7,2.2,1,1.2,0.7,0.4,0.9,1.004415701
100121,Metro Vancouver - North Vancouver,BC,75 Riverside Dr.,49.301472,-123.020417,4,DMax1HR,0,8.2,0.9,0.5,0.6,1.4,1.8,1.1,1.1,1.5,0.8,1,0.6,0.5,1,0.974966715
100128,Metro Vancouver - Richmond,BC,10371 Aragon Rd,49.141437,-123.108215,4,DMax1HR,0,6.1,0.3,0.4,0.5,0.5,0.9,0.6,0.9,1.2,1,1,0.7,0.5,0.7,0.688912636
100132,Metro Vancouver - North Vancouver,BC,16th St. & Jones Ave,49.323994,-123.083496,71,DMax1HR,0,24.6,0.7,0.4,0.6,1.9,1.5,1.2,1.4,1.7,0.9,1,0.4,0.3,1,1.549361312
100134,Metro Vancouver - Richmond,BC,3153 Templeton Street,49.186265,-123.152422,1,DMax1HR,0.1,6.3,0.7,0.9,0.9,1,1.5,1.4,2,2.1,1.1,1.1,1,1,1.2,0.896752231
100136,Metro Vancouver - Burnaby,BC,Grosvenor Cresent,49.287869,-122.98563,200,DMax1HR,0,70.6,8.2,0.6,0.4,4.7,6.6,2.8,6.8,4.6,3.3,6.5,4.3,3,4.4,9.26995187
100137,Metro Vancouver - Burnaby,BC,Eton And Madison Ave. Burnaby,49.287483,-123.007975,70,DMax1HR,0,20.4,5.2,0.7,0.6,4.7,3.1,1.6,2.5,2.3,1.7,2,1.3,2.3,2.4,2.507214779
100140,Metro Vancouver - Delta,BC,411 Milsom Wynd,49.009877,-123.081997,52,DMax1HR,0,7.6,0.4,0.7,0.6,0.6,1.2,0.6,1.1,1.2,0.6,0.9,0.6,0.4,0.7,0.934596507
100141,Metro Vancouver - Vancouver,BC,1290 East 11th Ave.,49.260267,-123.077776,30,DMax1HR,0.2,76,1,0.8,0.7,5,1.7,1.3,1.8,1.8,1.3,1.2,0.9,0.9,1.6,4.510482023
100202,Prince George,BC,"Plaza 400, 1011 4th Avenue",53.91472,-122.74194,588,DMax1HR,0,108.2,,8.4,5.4,10.3,7.2,10.1,10,6.1,8.6,6.1,3,3.2,6.9,12.06214731
100210,Prince George,BC,,53.90333,-122.70361,733,DMax1HR,0.1,188.1,26.3,22.3,21,25,24.2,14.4,21.1,20.2,25.5,17.3,5.3,14.7,19.8,32.70941973
100211,Prince George,BC,775 E Highway 16,53.908008,-122.713344,616,DMax1HR,0.2,92.9,15,14.1,12.1,16.6,18.2,11.6,15.1,10.1,22.6,13.3,4.4,10.8,13.6,17.91075179
100212,Prince George,BC,"Marsulex Acid Plant, 8901 Penn Road",53.8416,-122.7344,604,DMax1HR,0.2,44.4,7,4.7,3.3,5.4,5.7,3.4,3.9,2.2,2.9,2.8,0.9,1,3.6,4.862777279
100304,Victoria,BC,"Sj Willis School, 923 Topaz Ave.",48.441942,-123.363165,29,DMax1HR,0,6.7,0.6,0.7,1.1,0.6,0.9,0.8,2,1.9,1.2,1.5,0.9,0.7,1.1,1.023809289
100318,Victoria,BC,21 Erie St.,48.421417,-123.384178,0,DMax1HR,0.1,4.8,0.2,,0.4,0.2,0.7,0.7,1,0.5,0.4,0.5,,0.3,0.5,0.631108568
100401,Kamloops,BC,317 Seymour St.,50.67477,-120.334016,381,DMax1HR,0,6.9,0.5,0.6,1,0.9,0.6,0.3,1,1.1,0.3,0.5,0.4,0.3,0.6,0.823053734
100701,Kelowna,BC,3333 College Way,49.862336,-119.477367,347,DMax1HR,0.1,2.2,0.9,0.6,0.8,0.7,0.7,0.6,0.7,0.8,0.7,1.1,1,0.9,0.8,0.32868596
101003,Abbotsford,BC,32995 Bevan Ave.,49.042579,-122.309821,58,DMax1HR,0,7.1,0.2,0.4,0.4,0.5,0.8,0.7,1.8,1.7,0.5,0.6,0.3,0.2,0.7,0.954309779
101005,Abbotsford,BC,1073 Columbia Street,49.021554,-122.326523,65,DMax1HR,0,6.2,0.1,0.2,0.3,0.4,0.8,0.5,1.6,1.2,0.5,0.5,0.4,0.2,0.6,0.803193031
101101,Metro Vancouver - Chilliwack,BC,46360 Airport Road,49.155848,-121.940279,12,DMax1HR,0,6.3,0.1,0.2,0.2,0.3,0.6,0.4,1,1.2,0.4,0.2,0.2,0.1,0.4,0.640461794
101202,Metro Vancouver - Pitt Meadows,BC,18477 Dewdny Trunk,49.245233,-122.70889,5,DMax1HR,0,5.3,0.7,0.7,0.8,0.9,1.2,0.7,1.4,1.3,0.7,1.4,1,1.1,1,0.862127275
101301,Metro Vancouver - Langley,BC,23752 52nd Avenue,49.095613,-122.567104,88,DMax1HR,0,5.8,0.1,0.3,0.4,0.4,0.8,0.8,1.3,1,0.4,0.5,0.2,0.1,0.5,0.681742368
101603,Squamish,BC,38370 Buckley Avenue,49.70516,-123.15133,6,DMax1HR,0,10,0.7,0.5,0.5,0.4,1,0.8,0.8,0.9,1,1,0.8,0.7,0.8,0.794747133
101701,Quesnel,BC,585 Callanan Street,52.981686,-122.493227,490,DMax1HR,0,20,0.4,0.4,0.6,0.9,2,2.7,4.4,1.5,1.4,1.5,0.6,0.7,1.4,2.433464994
102201,Trail,BC,1875 Columbia Ave.,49.096218,-117.697828,422,DMax1HR,0.1,226.5,20.9,25.3,46.4,50.2,49.2,31.5,46.9,32.7,39.8,30,33.7,30.4,36.5,37.52961577
102210,Trail,BC,8995 Highway 22a,49.046405,-117.60711,0,DMax1HR,0,103.7,15.7,10.2,19.2,14.5,17.1,8.5,20.2,20.4,14,8.9,14.6,22.7,15.6,15.3137358
102220,Trail,BC,395 Schofield Highway,49.0952,-117.7469,0,DMax1HR,0.2,457.4,23.3,46.4,51.8,25.9,50,47.4,54.6,42.2,37.2,13.9,34.6,39.5,38.3,49.63797014
102230,Trail,BC,S End,49.157855,-117.73312,0,DMax1HR,0,140.5,20.1,20.8,29.9,19.9,12.7,15.3,17,18.2,9.4,11,42.3,41.9,22.1,25.42132707
102503,Terrace,BC,3411 Munroe Street,54.52167,-128.6075,81,DMax1HR,0,7.9,0.4,0.9,1,1.2,1.7,2.3,2.1,2.4,1.5,0.9,0.8,0.6,1.3,1.377291969
102701,Williams Lake,BC,1045 Western Avenue,52.14428,-122.150391,631,DMax1HR,0.1,2.1,,0.7,0.5,0.4,0.3,0.3,0.4,0.6,0.4,0.5,0.5,0.5,0.5,0.312881576
103502,Castlegar,BC,801 9th Avenue,49.317698,-117.661527,407,DMax1HR,0.1,83.1,7.6,9.1,5.8,6,2,5.3,6.3,5.5,5,1.5,12,11.7,6.5,9.782676554
103702,Pine River,BC,Gas Plant Site,55.574531,-121.921247,1159,DMax1HR,0.2,66.8,12.6,16.2,13,11.8,21.9,20.1,12.9,21.6,5.5,1.8,1.4,6.9,12.2,13.2403898
103704,Pine River,BC,Pine River Gas Plant,55.6056,-121.9722,610,DMax1HR,0,12,0.8,0.6,1.4,0.9,0.7,0.4,0.6,0.7,0.7,0.5,0.4,0.6,0.7,1.196898412
103901,Kitimat,BC,651 Columbia Ave W,54.05389,-128.671436,18,DMax1HR,0,35.1,0.1,2,3.3,3.5,6.1,6.7,5.5,3.5,3.2,2.5,0.9,1.7,3.3,5.623872659
103902,Kitimat,BC,Haulage Road,54.029194,-128.70269,11,DMax1HR,0,101.9,6.2,20.1,13.9,12,17.6,20.5,18.1,32.5,11.2,16.4,12.6,12,16.2,17.64436599
103904,Kitimat,BC,1332 Lahakas Blvd North,54.066909,-128.639131,94,DMax1HR,0,23.7,0.2,0.8,2.2,2,5.1,4.3,4.2,2.6,3,1.4,1.2,1.4,2.4,4.08858581
103905,Kitimat,BC,347 Haisla Avenue,53.973228,-128.650768,5,DMax1HR,0,30.7,0.2,0.5,3.4,1,2.5,1,2,0.9,1.6,1.3,1.1,0.6,1.4,3.158648034
104301,Taylor,BC,Mcmahon Complex,56.150186,-120.686985,474,DMax1HR,0,80.8,5.4,2.6,8.5,8,4.6,5.4,3,3.9,8.2,7.3,3.4,2.9,5.3,9.340382508
104302,Taylor,BC,Pingle Creek Road,56.105871,-120.662779,689,DMax1HR,0,55.3,2.1,2.1,6.3,2.8,1.3,1.7,1.6,1.7,1.7,3.6,4.5,2.2,2.7,6.04630888
104303,Bessborough,BC,237 Road,55.7919,-120.4836,665,DMax1HR,0.2,26,2.4,1.7,1.5,0.9,1.7,1.2,0.6,0.9,0.8,1,1.7,1.2,1.3,1.815979099
104304,Farmington,BC,4794 Parkland Road,55.913779,-120.533749,696,DMax1HR,1.1,1.1,,,,,,,,,,,,,,
105301,Langdale,BC,1551 Johnson Rd.,49.438848,-123.479185,90,DMax1HR,0,17,1.3,1.6,2.8,2.5,3,4.7,3,3.4,1.2,3,1.6,1.3,2.5,2.587532421
105504,Fort St. John,BC,10511 99 Avenue,56.24473,-120.8561,679,DMax1HR,0,6,0.8,1.3,1.4,0.7,0.8,0.6,0.3,0.4,0.4,1.2,0.9,0.8,0.8,0.942803507
106702,Crofton,BC,1427 Georgia Park Heights Rd,48.849649,-123.637031,150,DMax1HR,0,249.1,,,9.6,12.7,19,10.7,61.6,58.7,39.2,19.1,4.1,2.2,,
129003,Yellowknife,NT,"52nd Ave. & 49th Street, Sir John Franklin High School",62.45207,-114.364,193,DMax1HR,0,1,0.7,0.7,0.8,0.8,0.8,0.7,0.5,0.3,0.3,0.3,0.2,0.7,0.6,0.263031524
129102,Norman Wells,NT,#7 Forestry Road N. Wells,65.27926,-126.813057,60,DMax1HR,0,0.9,0.1,0.3,0.5,0.7,0.8,0.9,0.1,0.5,0.7,0.9,0.8,0.9,0.6,0.336466477
129203,Inuvik,NT,"Bompas Road (Block21, Lot 4084)",68.35702,-133.714057,30,DMax1HR,0.1,2.6,0.6,0.8,0.7,0.8,0.8,1,0.5,0.6,0.4,0.5,,0.8,0.7,0.276725951
129303,Iqaluit,NU,Water Lab (1307 Federal Road),63.751619,-68.522433,35,DMax1HR,0.1,11.4,2.5,2,7.4,3.2,1.9,2,0.5,0.3,0.5,0.3,0.5,0.7,1.8,2.374632003
129601,Fort Smith,NT,95 Conibear Crescent,60.00455,-111.893241,358,DMax1HR,0,1,0.2,0.2,0.3,0.4,0.7,0.2,0.1,0.8,0.6,0.8,0.4,0.5,0.4,0.385167919
************DAILYMEAN************,,,,,,,,,,,,,,,,,,,,,,,
NAPS ID,City,P/T,Location,Latitude,Longitude,Elevation,ID,Minimum,Maximum,January,February,March,April,May,June,July,August,September,October,November,December,Mean,Standard Deviation
010102,St. John's,NL,354 Water Street,47.56038,-52.71147,7,DMean,0.1,3.5,0.5,0.4,0.4,0.7,0.8,1.1,1.6,2,1.1,1,0.4,0.7,0.89,0.625882841
010401,Mount Pearl,NL,Old Placentia Road,47.50513,-52.79476,135,DMean,0.3,2.5,1.2,1,0.9,1,1.1,1,1.1,0.8,0.7,0.8,0.7,0.8,0.93,0.400566687
010501,Grand Falls - Windsor,NL,Scott Avenue,48.92696,-55.65966,62,DMean,0,1,0.4,0.3,0.5,0.7,0.5,0.4,0.7,0.7,0.3,0.5,0.6,0.4,0.51,0.220410759
010602,Corner Brook,NL,Macpherson Ave,48.95224,-57.92207,100,DMean,0.1,3.2,0.6,0.4,0.4,,,0.8,0.8,0.8,0.8,0.6,0.7,0.7,,
010901,Burin,NL,18 Hwy 220 (Main St.),47.09899,-55.19852,1,DMean,0,0.4,0.1,0.1,0.1,0.1,0.1,0.1,0.1,0.1,0,0.1,0.1,0.1,0.08,0.049762967
011002,Labrador City,NL,317 Hudson Drive,52.945487,-66.910306,558,DMean,0.1,9.3,0.4,0.5,1.7,0.5,0.2,0.6,0.3,0.3,0.3,0.9,0.9,0.6,0.59,1.085089625
020104,Charlottetown,PE,3 Brighton Road,46.233,-63.13667,21,DMean,0,3.1,0.6,0.3,0.3,0.2,0.2,0.1,0.1,0.1,0,0.1,,0.3,0.2,0.285160018
030113,Halifax,NS,1672 Granville Street,44.64711,-63.57366,28,DMean,0,5.1,0.4,0.1,0.2,0.2,0.2,0.2,0.2,0.3,0.4,0.3,0.6,0.8,0.32,0.419320929
030118,Halifax,NS,1649 Barrington Street,44.646425,-63.573383,18,DMean,0.1,1.7,,,,,,,,,,,,,,
030120,Dartmouth,NS,341 Cherrybrook Road,44.7198,-63.48076,68,DMean,0,2.5,0.3,0.3,0.4,0.2,0.2,0.3,0.3,0.3,0.2,0.1,0.3,1.1,0.34,0.360804276
030201,Port Hawkesbury,NS,18 Embree Street,45.614161,-61.362356,14,DMean,0,15.1,0.6,0.7,0.4,0.9,1.1,1.3,1.4,0.6,1.1,0.7,0.5,0.6,0.82,1.367372325
030310,Sydney,NS,71 Welton Street,46.14222,-60.17252,27,DMean,0,11.1,0.4,0.4,1.5,1,0.5,0.4,0.2,0.3,0.6,0.3,0.4,0.3,0.54,1.113430413
030901,Pictou,NS,91 Beeches Road,45.681744,-62.696575,12,DMean,0,5,0.3,0.5,0.5,0.6,0.3,0.2,0.1,0.2,0.3,0.3,0.3,0.8,0.37,0.509343307
040203,Saint John,NB,Mountain Road,45.308762,-66.008384,41,DMean,0,23.3,0.6,0.8,0.4,2.7,4.1,4,4.4,3.6,2.3,0.3,0.2,0.4,1.99,3.315068015
040207,Saint John,NB,476 Lancaster Avenue W.,45.252898,-66.080065,59,DMean,0,15.1,1.1,0.7,0.9,0.5,0.3,0.8,0.2,0.3,0.3,0.9,1.1,2.5,0.8,1.558837674
040208,Saint John,NB,111 Champlain Drive,45.291218,-66.00305,47,DMean,0,28.8,1.9,1.3,0.4,1.5,1.1,0.4,0.3,0.5,1.1,0.4,2.1,1.4,1.02,2.583470684
040209,Saint John,NB,8 Castle Street,45.28028,-66.05611,41,DMean,0,4,0.6,0.5,0.3,0.7,0.5,0.2,0.1,0.1,0.2,0.1,0.7,0.3,0.36,0.670587645
041501,Edmundston,NB,19 Queen St.,47.363195,-68.322302,159,DMean,0,34.1,2.8,2.1,2,1.8,3.4,3.2,2.8,1.6,1.8,2.6,1.7,4.6,2.54,4.384478943
050103,Montréal,QC,"1050 A, Boul. Saint-Jean-Baptiste",45.641026,-73.499682,19,DMean,0,9.3,1.4,0.9,1.3,1.2,1.1,1.3,0.9,1,0.7,1.4,1.3,0.9,1.12,1.270920055
050122,Brossard,QC,En Face Du 8400 Avenue Sorbonne,45.448663,-73.480819,17,DMean,0,1.8,0.3,0.3,0.2,0.2,0.4,0.5,0.3,0.2,0.2,0.1,0.1,0.1,0.24,0.277218972
050126,Montréal,QC,20965 Ch. Sainte-Marie,45.426542,-73.928929,39,DMean,0,2.2,0.7,0.5,0.3,0.3,0.4,0.3,0.3,0.3,0.3,0.3,0.3,0.5,0.38,0.343589159
050133,Montréal,QC,"8200a Rue Chenier, Arena Chenier",45.60176,-73.541992,41,DMean,0,4.1,1.2,0.7,0.8,0.3,0.6,0.4,0.4,0.5,0.5,0.3,0.2,0.5,0.55,0.684462651
050134,Montréal,QC,2580 Saint-Joseph Est,45.54271,-73.57176,53,DMean,0,3.7,1.3,1.1,0.9,0.7,1,0.7,0.7,0.8,0.8,0.5,0.3,0.4,0.76,0.670690746
050136,Montréal,QC,75 Rue Ontario Est,45.512189,-73.566842,32,DMean,0,4.1,0.5,0.5,0.3,0.2,0.7,0.4,0.3,0.2,0.3,0.1,0.1,0.1,0.32,0.467808925
050204,Gatineau,QC,"255 St-Redempteur, Hull",45.435987,-75.723429,62,DMean,0,0.8,0.1,0.1,0.1,0.1,0.1,0.1,0.1,0,0.1,0.1,0.1,0.1,0.08,0.090205242
050308,Québec,QC,600 Rue Des Sables,46.821177,-71.220495,8,DMean,0,1.7,0.3,0.2,0.2,0.2,0.3,0.2,0.3,,0.2,0.4,0.4,0.5,0.28,0.22844209
050604,Rouyn-Noranda,QC,1570 Rue Paradis,48.234087,-78.982778,289,DMean,0,24.2,2,1.3,1.4,1.2,1.1,0.5,0.9,1,1.5,1.9,1.9,1.5,1.35,2.844919936
050803,Trois Rivières,QC,Rue Whitehead,46.357175,-72.546187,12,DMean,0,1.4,0.2,0.3,0.3,0.2,0.3,0.2,0.2,0.2,0.2,0.1,0.3,0.2,0.23,0.216760846
050902,Saguenay,QC,"2885 Berthier (Arvida), Jonquiere",48.43389,-71.18454,93,DMean,0.1,46.4,4.7,4.5,5.6,4.7,5,4.2,3.6,3.1,6,6.8,9.8,5.7,5.3,8.278457367
054401,Saint-Anicet,QC,1128 De La Guerre,45.120624,-74.2896,50,DMean,0,5.8,1,0.5,0.5,,0.5,0.3,0.2,0.2,0.3,0.5,0.3,0.3,0.41,0.66464008
055702,Lévis,QC,200 Rue Des Commandeurs,46.806029,-71.167506,106,DMean,0,1.8,0.4,0.5,0.2,0.3,0.3,0.5,0.4,0.3,0.2,0.2,0.3,0.4,0.33,0.309242571
060104,Ottawa,ON,Rideau & Wurtemburg,45.43433,-75.676,68,DMean,0.1,0.9,0.3,0.3,0.2,0.1,0.2,0.1,0.1,0.1,0.1,0.2,0.2,0.2,0.18,0.123932527
060204,Windsor,ON,467 University Ave. West,42.315778,-83.043667,176,DMean,-0.2,12.5,2.1,0.9,0.4,0.5,0.8,0.6,0.4,0.4,0.1,0.4,0.2,0.3,0.59,1.193394779
060211,Windsor,ON,College & South St. / 928 South St.,42.292889,-83.073139,180,DMean,-0.1,5.9,1.1,0.7,0.5,0.6,0.7,0.9,0.7,0.9,0.4,0.6,0.8,0.6,0.71,0.759984144
060430,Toronto,ON,125 Resources Road,43.709444,-79.5435,141,DMean,0,2.5,1,0.5,0.2,0.3,0.4,0.3,0.3,0.2,0.1,0.2,0.2,0.2,0.32,0.403583712
060438,Toronto,ON,401w - 125 Resources Rd.,43.711106,-79.543425,139,DMean,0,2.2,0.3,0.3,0.3,0.3,0.4,0.4,0.4,0.2,0.2,0.3,0.3,0.2,0.29,0.277277618
060440,Toronto,ON,4905 Dufferin Street,43.78042,-79.46752,,DMean,0,2.2,0.4,0.3,0.2,0.2,0.3,0.3,0.3,0.2,0.2,0.3,0.2,0.1,0.26,0.324039313
060512,Hamilton,ON,Elgin & Kelly,43.25778,-79.86167,90,DMean,0.2,50.5,1.3,2.6,3.9,5.3,15.7,11.3,5.9,3.6,5.3,2.1,1.2,1.9,5.02,7.781984917
060513,Hamilton,ON,Vickers Rd. & East 18th. St.,43.22942,-79.86278,209,DMean,0.1,25.9,1.1,0.9,1.9,2.3,7.3,4.3,2.9,2,1.9,1.3,0.7,,2.42,3.501114711
060610,Sudbury,ON,155 Elm Street,46.49194,-81.00311,271,DMean,0,12.3,1.5,1.8,1.1,2,0.9,1,1.2,0.8,1,1.1,1.2,1.2,1.22,1.511087696
060709,Sault Ste. Marie,ON,"443 Northern Ave., Sault College",46.53319,-84.30992,244,DMean,0,14.1,1.1,1.2,0.6,0.8,1.4,0.6,0.9,0.7,0.3,0.5,0.5,1,0.79,1.279282696
061007,Sarnia,ON,1300 Tashmoo Ave./ Lasalle Line,42.912545,-82.416816,180,DMean,-0.2,18.9,1.3,0.8,2,1.8,3.8,2.8,1.6,1,0.7,0.8,0.7,0.6,1.49,2.3210373
061009,Sarnia,ON,700 Christina St. N.,42.990263,-82.395341,182,DMean,-0.1,27.2,4,2.6,0.7,1,3.6,1.5,1.7,2,1.4,2,1,1.5,1.93,3.558264467
062601,Simcoe,ON,Experimental Farm,42.85685,-80.26964,236,DMean,-0.5,3.5,0.3,0.4,0.4,0.5,1.2,1.2,1.3,1.2,0.5,-0.2,-0.3,-0.4,0.53,0.671017463
080111,Regina,SK,1621 Albert St.,50.4527,-104.616,585,DMean,0,3.6,0.2,0.1,0.2,0.2,0.4,0.3,0.2,0.5,0.4,0.4,0.2,0.6,0.3,0.341388508
080211,Saskatoon,SK,511 1st Avenue North,52.13613,-106.66293,483,DMean,0,0.8,0.2,0.2,0.2,0.2,0.1,0.1,0.1,0.1,0.1,0.1,0.1,0.1,0.14,0.095495101
080402,Prince Albert,SK,63 - 12th Street East,53.201694,-105.75203,436,DMean,0,0.9,0.3,0.2,0.2,0.2,0.1,0.1,0.1,0.2,0.3,0.2,0.4,0.6,0.23,0.169007765
080502,Estevan,SK,528 1a Street,49.13235,-102.98499,563,DMean,0,18.3,1.6,2.7,2.6,2.2,1.3,0.9,0.8,1.6,0.9,1.3,0.6,1.9,1.51,2.244197262
081001,Swift Current,SK,1200 Begg St. W,50.285833,-107.81689,753,DMean,0,3.5,0.4,0.4,0.4,0.2,0.2,0.1,0.1,0.1,0.1,0.1,0.1,0.2,0.2,0.296414121
082002,Buffalo Narrows,SK,Buffalo Narrows Forest Protection Base,55.834566,-108.403332,425,DMean,0,1.4,0.5,0.4,0.2,0.5,0.5,0.4,0.4,0.2,0.2,0.2,0.2,0.3,0.32,0.201989547
090120,Edmonton,AB,6240 113 Street,53.50022,-113.526056,681,DMean,0,3.7,0.5,0.5,0.9,0.4,0.3,0.2,0.4,0.4,0.2,0.3,0.2,0.3,0.38,0.482089932
090121,Edmonton,AB,17 Street & 105 Avenue,53.54823,-113.36811,670,DMean,0,13.5,0.5,0.8,1.2,0.7,1.2,1,1.5,1.5,0.9,0.6,0.6,0.5,0.93,1.239824815
090133,Edmonton,AB,13915 115 Avenue Nw,53.564411,-113.562583,670,DMean,0,4.7,0.4,0.5,1,0.7,0.4,0.4,0.4,0.4,0.1,0.3,0.2,0.3,0.43,0.484923302
090134,Sherwood Park,AB,Ottwell House Park,53.532092,-113.320983,709,DMean,0,8.3,1.4,1.9,1.3,1.1,1,1.2,1.5,1.8,1.1,1.5,0.7,1.1,1.3,1.434500942
090135,Ardrossan,AB,3 Avenue,53.554691,-113.144905,707,DMean,0,6.7,1,1.6,0.9,0.5,0.2,0.5,,,0.3,0.7,0.8,0.8,,
090229,Calgary,AB,4700 110 Avenue Se,50.955122,-113.969742,1032,DMean,0,2.8,0.6,0.5,0.4,0.2,0.2,0.2,0.5,1,0.1,0.5,0.4,0.5,0.43,0.460749105
090302,Red Deer,AB,73 Street & Riverside Drive,52.29867,-113.79352,858,DMean,0,1.7,0.4,0.4,0.3,0.2,0.1,0,0.1,0.1,0,0.1,0,0.1,0.16,0.25677686
090304,Red Deer,AB,11 Lancaster Drive,52.24095,-113.765439,907,DMean,0,2.7,0.8,0.6,0.8,0.4,0.2,0.2,0.3,0.4,0.1,0.4,0.6,0.8,0.45,0.407618072
090502,Lethbridge,AB,28 Street & 12 Avenue N.,49.71621,-112.8006,918,DMean,0,0.4,0,0,0,0,0,0,0,0,0,0,0,0,0.02,0.064717937
090601,Fort Saskatchewan,AB,9209a-96 Ave,53.69874,-113.22285,628,DMean,0,3.5,0.3,0.6,0.6,0.2,0.3,0.4,0.5,0.6,0.3,0.4,0.3,0.4,0.4,0.528016585
090603,Fort Saskatchewan,AB,100 Ave East Of 109st.,53.71622,-113.19994,620,DMean,0,4.2,0.4,0.7,0.7,0.4,0.5,0.3,0.5,0.5,0.7,0.3,0.3,0.5,0.49,0.660463578
090607,Gibbons,AB,Behind 4807 50 Ave,53.827241,-113.327174,673,DMean,0,5.1,0.6,0.5,1.1,0.6,0.2,0.5,0.5,0.3,0.5,0.5,0.3,0.9,0.55,0.661502826
090608,Redwater,AB,4704-49 Ave,53.95183,-113.105857,627,DMean,0,4.1,0.3,0.5,0.6,0.5,0.3,0.4,0.4,0.2,0.2,0.5,0.1,0.4,0.37,0.579414066
090609,Bruderheim,AB,5321 48 Street,53.805629,-112.925851,630,DMean,0,6.6,0.7,1.4,0.5,0.6,0.6,1.1,0.9,1.4,0.5,1.3,1,1.3,0.94,0.963882989
090701,Fort Mcmurray,AB,Macdonald Dr.,56.73341,-111.39047,260,DMean,0,4.9,0.5,0.6,0.8,0.4,0.2,0.2,0.5,0.8,0.5,0.3,0.2,0.4,0.45,0.78038969
090702,Fort Mcmurray,AB,Timberlea Subdivision,56.75139,-111.47662,355,DMean,0,9.9,1,0.9,1.3,0.6,0.3,0.5,0.8,0.6,0.7,0.6,0.6,0.7,0.73,1.156229792
090801,Fort Mckay,AB,Main Street,57.18941,-111.6405,268,DMean,0,10.1,0.9,0.5,1.7,0.7,0.8,0.5,0.6,0.5,0.4,1.3,0.4,0.7,0.75,1.361505677
090802,Fort Mckay,AB,Lower Camp,57.02681,-111.5007,247,DMean,0,26.2,0.9,1.6,1.9,2.4,2.7,2.3,1.7,1.8,3.1,3.4,1.8,1.2,2.06,2.812724219
090805,Fort Mckay,AB,Buffalo Viewpoint,56.99647,-111.59295,336,DMean,0,14,0.4,0.4,0.5,0.7,1.2,1.2,0.4,0.6,1.1,0.8,0.2,0.4,0.66,1.529462161
090806,Fort Mckay,AB,4-13-094-11 W4,57.1492,-111.6424,342,DMean,0,8.2,0.8,0.3,1.3,0.7,0.8,0.5,0.6,0.4,0.6,1.2,0.6,0.7,0.7,1.174279757
090807,Wapasu,AB,Located Oustide Approval Boundaries At Pti Camp,57.26176,-111.037,429,DMean,0,6.7,1.3,1.1,0.8,0.3,0.7,0.8,0.6,0.8,0.6,0.8,0.5,2.2,0.88,1.346722804
090808,Conklin,AB,1-33-076-08 W4,55.621408,-111.17269,673,DMean,0,5.3,0.8,0.5,0.5,0.4,0.2,0.2,0.1,0.1,0.1,0.3,0.4,0.6,0.34,0.489275871
091101,Elk Island,AB,National Park,53.68238,-112.86812,714,DMean,0,4,0.6,0.9,0.5,0.3,0.3,0.3,0.4,0.7,0.3,0.5,0.6,0.6,0.51,0.576852728
091301,Tomahawk,AB,Se 2 51 6 W5,53.37255,-114.76835,789,DMean,0,2.8,0.3,0.4,0.6,0.3,0.1,0.1,0.2,0.1,0.2,0.2,0.1,0.1,0.22,0.417801244
091401,Violet Grove,AB,Se 17 48 08 W5,53.14222,-115.13806,1000,DMean,0,3.7,0.4,0.4,0.4,0.3,0.1,0,0.1,0.1,0.1,0.1,0.1,0.2,0.2,0.405943846
091501,Beaverlodge,AB,Beaverlodge Research Farm,55.19634,-119.39682,762,DMean,0,3.8,0.4,0.5,0.8,0.5,0.1,0.1,0.3,0.3,0.1,0,0.1,0.4,0.3,0.437243568
091601,Carrot Creek,AB,Se 31 53 13 W5,53.621062,-115.869155,800,DMean,0,2.1,0.3,0.3,0.4,0.1,0,0,0,0,0,0,0,0,0.1,0.275768119
091701,Steeper,AB,Ne 12 48 22 W5,53.1325,-117.09111,1400,DMean,0,1.7,0,0.1,0.2,0.2,0,0,0,0,0.1,0,0,0,0.06,0.174065921
091801,Fort Chipewyan,AB,Fort Chipewyan,58.70879,-111.17683,238,DMean,0,11.3,1,0.1,0.1,0,0,0,0,0,0.1,0.3,0.2,0.3,0.17,0.755129508
091901,Caroline,AB,16-30-034-5 W5,51.94687,-114.69744,1140,DMean,0.4,4.1,1.1,1.2,1.1,1.1,1.2,1.1,1.2,1.2,1.1,1.2,1.2,1.1,1.15,0.315962532
092001,Grande Prairie,AB,10327 - 107 Avenue,55.1766,-118.8078,658,DMean,0,5.2,0.7,0.8,0.6,0.5,0,0,0.2,0.1,,0.1,0.2,0.6,0.35,0.469050706
092201,Lamont,AB,Rge Rd 203 & Twp Rd 550,53.76036,-112.88017,767,DMean,0,7.3,1.1,1.5,0.9,0.5,0.5,1,1,1.4,0.4,1.4,1.1,1.6,1.04,1.082230165
092601,Breton,AB,Hwy 20,53.0903,-114.46061,900,DMean,0,2.7,0.4,0.3,0.6,0.3,0.2,0.2,0.1,0.4,0.1,0.1,0.3,0.1,0.27,0.453303746
092901,Edson,AB,7 Ave,53.593771,-116.395822,894,DMean,0,2,0.4,0.3,0.5,0.2,0.1,0.1,0.1,0.1,0,0.1,0,0,0.15,0.252096642
093001,Grande Prairie,AB,,55.1172,-118.7647,645,DMean,0,3.7,0.3,0.5,0.3,0.1,0.1,0.1,0.1,0.1,0,0.1,0.2,0.2,0.18,0.296448021
093101,Genesee,AB,Range Road 15,53.3016,-114.2211,772,DMean,0,6.8,0.5,0.5,0.4,0.5,1.2,1.2,1.1,1.2,0.4,0.6,0.2,0.4,0.69,0.878260792
093202,Hinton,AB,Private Road,53.427301,-117.544067,1215,DMean,0,7.6,0.3,1.1,0.4,0.4,0.6,0.6,0.4,0.3,0.1,0.2,0.5,0.5,0.44,0.859113973
093801,Warbug,AB,Range Road 34,53.53,-114.6361,753,DMean,0,6,0.5,0.2,1,0.9,0.3,0.3,0.4,0.1,,,0.2,0.2,0.4,0.877712467
093901,Thorsby,AB,Range Road 35,53.633,-114.4199,774,DMean,0,2.1,0.3,0.1,0.3,0.3,0.2,0.2,0.3,0.2,0,0.1,0,0.1,0.18,0.355092381
094001,Debolt,AB,Goodwin Road,55.402658,-118.280945,638,DMean,0,3.2,0.8,0.8,0.8,0.5,0.2,0.2,0.1,0.2,0.2,0.2,0.2,0.6,0.41,0.474036062
094202,Sunnybrook,AB,Township Road 514 & Range Road 33a,53.4243,-114.3749,684,DMean,0,4.4,0.3,0.6,0.5,0.6,1.2,0.7,1.1,0.5,0.4,0.6,0.2,0.3,0.59,0.765920134
094301,Cold Lake,AB,15 Ave,54.414014,-110.232939,556,DMean,0,1.6,0.2,0.3,0.1,0.2,0.1,0,0,0,0,0.1,0.1,0.1,0.1,0.188330407
094401,St Lina,AB,North Of Township Road 604 On Ab-867,54.2165,-111.5026,679,DMean,0,1.7,0.5,0.4,0.5,0.4,0.1,0.2,0.1,0.3,0,0.1,0.1,0.3,0.26,0.349282996
094601,Anzac,AB,264 Stony Mountain Rd.,56.44928,-111.03722,497,DMean,0,5.7,0.9,0.6,0.7,0.4,0.2,0.2,0.3,0.2,0.2,0.4,0.5,0.7,0.44,0.646426964
100110,Metro Vancouver - Burnaby,BC,700 Hammarskjold Drive,49.279214,-122.970707,104,DMean,0,1.4,0.1,0.1,0.1,0.3,0.4,0.3,0.4,0.5,0.3,0.3,0.1,0.1,0.27,0.262149648
100111,Metro Vancouver - Port Moody,BC,Moody Street & Esplanade Avenue,49.280893,-122.849291,6,DMean,0,2.6,0.1,0.1,0.1,0.5,0.9,0.4,0.8,0.6,0.5,0.5,0.3,0.1,0.42,0.451311168
100112,Metro Vancouver - Vancouver,BC,Robson/Hornby,49.282272,-123.12188,32,DMean,0,2.1,0.4,0.2,0.3,0.5,0.4,0.4,0.5,0.8,0.5,0.5,0.3,0.3,0.43,0.342164682
100119,Metro Vancouver - Burnaby,BC,5455 Rumble Street,49.21519,-122.985666,122,DMean,0,1.7,0.2,0.1,0.2,0.2,0.4,0.3,0.5,0.7,0.3,0.3,0.3,0.1,0.31,0.26972897
100121,Metro Vancouver - North Vancouver,BC,75 Riverside Dr.,49.301472,-123.020417,4,DMean,0,1.9,0.2,0.1,0.2,0.3,0.5,0.4,0.4,0.7,0.3,0.3,0.2,0.1,0.32,0.252301767
100128,Metro Vancouver - Richmond,BC,10371 Aragon Rd,49.141437,-123.108215,4,DMean,0,1.3,0.2,0.1,0.2,0.1,0.2,0.2,0.3,0.4,0.4,0.4,0.3,0.3,0.26,0.228208636
100132,Metro Vancouver - North Vancouver,BC,16th St. & Jones Ave,49.323994,-123.083496,71,DMean,0,3.2,0.3,0.1,0.2,0.4,0.4,0.3,0.5,0.5,0.3,0.4,0.1,0.1,0.3,0.284063088
100134,Metro Vancouver - Richmond,BC,3153 Templeton Street,49.186265,-123.152422,1,DMean,0,2.4,0.3,0.3,0.3,0.4,0.5,0.5,0.7,0.7,0.4,0.5,0.4,0.4,0.46,0.325278209
100136,Metro Vancouver - Burnaby,BC,Grosvenor Cresent,49.287869,-122.98563,200,DMean,0,7,1.1,0.1,0.1,0.6,0.8,0.4,0.9,0.8,0.5,1.1,0.5,0.4,0.62,1.031055515
100137,Metro Vancouver - Burnaby,BC,Eton And Madison Ave. Burnaby,49.287483,-123.007975,70,DMean,0,4.6,1.3,0.3,0.2,1.1,0.8,0.5,0.7,0.8,0.5,0.6,0.4,0.6,0.64,0.623447221
100140,Metro Vancouver - Delta,BC,411 Milsom Wynd,49.009877,-123.081997,52,DMean,0,1.7,0.2,0.3,0.3,0.3,0.4,0.2,0.4,0.4,0.2,0.4,0.3,0.2,0.28,0.21648733
100141,Metro Vancouver - Vancouver,BC,1290 East 11th Ave.,49.260267,-123.077776,30,DMean,0.1,9.4,0.5,0.4,0.3,0.8,0.6,0.5,0.7,0.8,0.5,0.6,0.5,0.4,0.56,0.599551158
100202,Prince George,BC,"Plaza 400, 1011 4th Avenue",53.91472,-122.74194,588,DMean,0,13.9,,1.9,1.1,1.4,1.3,1.5,1.7,1.3,1.5,1.5,1,1,1.37,1.976734609
100210,Prince George,BC,,53.90333,-122.70361,733,DMean,0,46,5.5,4.1,4.4,4.8,4,2.3,3.7,3.3,5.6,3.5,0.7,2.4,3.68,6.234382537
100211,Prince George,BC,775 E Highway 16,53.908008,-122.713344,616,DMean,0.1,26.4,3.4,3.4,3.9,4.6,4,1.9,2.9,2.5,6.3,2.7,1,2.8,3.27,4.86799851
100212,Prince George,BC,"Marsulex Acid Plant, 8901 Penn Road",53.8416,-122.7344,604,DMean,0.1,9.5,2.7,1.6,1,1.4,1.5,1.3,1.5,0.7,1.2,0.9,0.4,0.4,1.23,1.477330054
100304,Victoria,BC,"Sj Willis School, 923 Topaz Ave.",48.441942,-123.363165,29,DMean,0,1.3,0.2,0.2,0.2,0.2,0.2,0.2,0.5,0.5,0.3,0.5,0.3,0.2,0.29,0.25599459
100318,Victoria,BC,21 Erie St.,48.421417,-123.384178,0,DMean,0.1,0.7,0.1,,0.2,0.1,0.2,0.2,0.2,0.2,0.1,0.2,,0.2,0.17,0.102906633
100401,Kamloops,BC,317 Seymour St.,50.67477,-120.334016,381,DMean,0,2.9,0.2,0.3,0.3,0.2,0.1,0.1,0.2,0.5,0.1,0.2,0.2,0.2,0.22,0.24260227
100701,Kelowna,BC,3333 College Way,49.862336,-119.477367,347,DMean,0,0.9,0.4,0.3,0.4,0.4,0.4,0.3,0.4,0.5,0.3,0.4,0.5,0.4,0.38,0.117494794
101003,Abbotsford,BC,32995 Bevan Ave.,49.042579,-122.309821,58,DMean,0,1.5,0.1,0.2,0.2,0.2,0.2,0.2,0.4,0.4,0.1,0.2,0.1,0.1,0.2,0.211002865
101005,Abbotsford,BC,1073 Columbia Street,49.021554,-122.326523,65,DMean,0,1.1,0,0.1,0.1,0.1,0.2,0.2,0.4,0.3,0.2,0.2,0.1,0.1,0.16,0.162525362
101101,Metro Vancouver - Chilliwack,BC,46360 Airport Road,49.155848,-121.940279,12,DMean,0,0.9,0,0.1,0.1,0.1,0.2,0.1,0.3,0.4,0.2,0.1,0,0,0.14,0.153887362
101202,Metro Vancouver - Pitt Meadows,BC,18477 Dewdny Trunk,49.245233,-122.70889,5,DMean,0,1.6,0.3,0.2,0.3,0.3,0.3,0.2,0.4,0.4,0.2,0.5,0.4,0.4,0.33,0.254601845
101301,Metro Vancouver - Langley,BC,23752 52nd Avenue,49.095613,-122.567104,88,DMean,0,1,0,0.1,0.1,0.2,0.2,0.2,0.3,0.2,0.1,0.1,0.1,0,0.14,0.150109087
101603,Squamish,BC,38370 Buckley Avenue,49.70516,-123.15133,6,DMean,0,1.2,0.3,0.2,0.2,0.2,0.3,0.2,0.3,0.3,0.3,0.3,0.2,0.2,0.24,0.15191212
101701,Quesnel,BC,585 Callanan Street,52.981686,-122.493227,490,DMean,0,2.4,0.1,0.1,0.2,0.3,0.3,0.4,0.7,0.4,0.3,0.3,0.2,0.2,0.31,0.318654829
102201,Trail,BC,1875 Columbia Ave.,49.096218,-117.697828,422,DMean,0,34.3,6.2,4.6,8.7,7.3,7.4,4.1,8,5,5.8,5.1,5.7,5.6,6.2,5.444326461
