NAPS ID,City,P/T,Location,Latitude,Longitude,Elevation,ID,Minimum,Maximum,January,February,March,April,May,June,July,August,September,October,November,December,Mean,Standard Deviation
010102,St. John's,NL,354 Water Street,47.56038,-52.71147,7,1HR,0.02,0.6,0.15,0.15,0.15,0.16,0.15,0.17,0.16,0.19,0.21,0.2,0.19,0.18,0.17,0.055529009
010401,Mount Pearl,NL,Old Placentia Road,47.50513,-52.79476,135,1HR,0,1.18,0.14,0.18,0.17,0.12,0.12,0.14,0.16,0.13,0.15,0.13,0.15,0.13,0.14,0.062188974
010501,Grand Falls - Windsor,NL,Scott Avenue,48.92696,-55.65966,62,1HR,0,0.69,0.19,0.21,0.16,0.15,0.1,0.09,0.08,0.11,0.13,0.14,0.19,0.16,0.14,0.065009429
010602,Corner Brook,NL,Macpherson Ave,48.95224,-57.92207,100,1HR,0,0.54,0.15,0.14,0.14,0.25,0.21,0.17,0.14,0.21,0.18,0.17,0.17,0.21,0.18,0.061295399
010901,Burin,NL,18 Hwy 220 (Main St.),47.09899,-55.19852,1,1HR,0,0.41,0.13,,,0.12,0.11,0.11,0.12,0.15,0.16,0.15,0.13,0.12,,
030113,Halifax,NS,1672 Granville Street,44.64711,-63.57366,28,1HR,0,1.11,0.13,0.14,0.13,0.14,0.14,0.2,0.18,0.19,0.18,0.17,0.15,0.16,0.16,0.05497316
030310,Sydney,NS,71 Welton Street,46.14222,-60.17252,27,1HR,0,0.7,0.14,0.14,0.13,0.15,0.14,0.16,0.18,0.17,0.17,0.17,0.16,0.15,0.15,0.04893882
040209,Saint John,NB,8 Castle Street,45.28028,-66.05611,41,1HR,0.05,0.63,0.17,0.16,0.16,0.15,0.14,0.18,0.19,0.2,0.2,0.19,0.17,0.17,0.17,0.04640576
040302,Moncton,NB,5 Thanet Street,46.101578,-64.789661,9,1HR,0.1,1.07,0.18,0.2,0.19,0.17,0.15,0.19,0.21,0.22,0.23,0.22,0.21,0.21,0.2,0.077989497
050109,Montréal,QC,"2495 Duncan / Decarie, Mt-Royal",45.502648,-73.663913,41,1HR,0.1,1.77,0.28,0.28,0.26,0.25,0.24,0.32,0.34,0.31,0.33,0.28,0.26,0.3,0.29,0.119023649
050113,Laval,QC,1160 Boul Pie-Ix,45.547463,-73.748317,35,1HR,0.09,1.7,0.22,0.25,0.2,0.19,0.16,,0.22,0.24,0.26,0.21,0.21,0.23,0.22,0.087555166
050128,Montréal,QC,"90-A Rue Herve-Saint-Martin, Dorval",45.468322,-73.741198,33,1HR,0.11,1.25,0.21,,,,,,,,,,,,,
050129,Montréal,QC,12400 Wilfrid-Ouellette (R-D-P),45.651691,-73.573825,29,1HR,0,1.78,0.2,,0.18,0.18,0.16,0.26,0.24,0.23,0.22,,0.19,0.22,0.21,0.091638165
050135,Montréal,QC,4240 Rue Charleroi,45.5934,-73.63726,41,1HR,0.12,0.83,0.24,0.28,,,,,,,,,,,,
050136,Montréal,QC,75 Rue Ontario Est,45.512189,-73.566842,32,1HR,0.11,2.35,0.2,0.22,0.19,0.19,0.18,0.27,0.27,0.25,0.24,0.21,0.2,0.24,0.22,0.091346831
050308,Québec,QC,600 Rue Des Sables,46.821177,-71.220495,8,1HR,0.09,1.29,0.21,0.25,0.18,0.17,0.16,0.22,0.25,0.22,0.24,0.22,0.22,0.23,0.21,0.099362408
050313,Québec,QC,Autoroute Henri Iv Nord/Sortie 138,46.781321,-71.308717,52,1HR,0.04,1.61,0.28,0.31,0.3,0.25,0.29,0.32,0.43,0.4,0.42,0.39,0.36,0.39,0.35,0.198138265
054401,Saint-Anicet,QC,1128 De La Guerre,45.120624,-74.2896,50,1HR,0.09,1.24,0.16,0.17,0.16,0.15,0.13,0.23,0.22,0.2,0.19,0.16,0.15,0.18,0.18,0.072029273
060204,Windsor,ON,467 University Ave. West,42.315778,-83.043667,176,1HR,0.01,1.93,0.24,0.23,0.22,0.21,0.22,0.34,0.26,0.29,0.27,0.24,0.25,0.25,0.25,0.112605273
060430,Toronto,ON,125 Resources Road,43.709444,-79.5435,141,1HR,0.04,1.76,0.25,0.24,0.25,0.23,0.25,0.34,0.32,0.31,0.3,0.26,0.21,0.24,0.27,0.114642766
060438,Toronto,ON,401w - 125 Resources Rd.,43.711106,-79.543425,139,1HR,0.01,1.83,0.32,0.31,0.31,0.29,0.34,0.42,0.4,0.4,0.39,0.36,0.34,0.38,0.35,0.155240883
060440,Toronto,ON,4905 Dufferin Street,43.78042,-79.46752,,1HR,0.05,1.71,0.2,0.21,0.2,0.19,0.2,0.28,0.26,0.26,0.25,0.24,0.22,0.23,0.23,0.096124005
060512,Hamilton,ON,Elgin & Kelly,43.25778,-79.86167,90,1HR,0,1.1,,,,,,,,,0.3,0.23,0.23,0.24,,
080111,Regina,SK,1621 Albert St.,50.4527,-104.616,585,1HR,0.09,1.84,0.19,0.18,0.18,0.16,0.2,0.17,0.21,0.24,0.28,0.18,0.17,0.19,0.2,0.093244303
080211,Saskatoon,SK,511 1st Avenue North,52.13613,-106.66293,483,1HR,0,2.13,0.2,0.19,0.19,0.16,0.21,0.2,0.23,0.25,0.32,0.19,0.18,0.21,0.21,0.121569671
090121,Edmonton,AB,17 Street & 105 Avenue,53.54823,-113.36811,670,1HR,0,2.59,0.27,0.19,0.2,0.25,0.33,0.29,0.36,0.33,0.36,0.2,0.22,0.24,0.27,0.168919867
090136,St. Albert,AB,37 Sunset Blvd,53.626908,-113.611883,681,1HR,0.03,2.31,0.3,0.2,0.21,0.16,0.28,0.18,0.37,0.36,0.37,0.23,0.23,0.28,0.27,0.172112344
090140,Edmonton,AB,9619 - 105a Avenue Nw,53.5495,-113.4859,1100,1HR,0.1,2.54,0.38,0.27,0.25,0.2,0.38,0.32,0.39,0.39,0.45,0.35,0.31,0.34,0.34,0.202441661
090141,Edmonton,AB,11313 - 61 Avenue Nw,53.4978,-113.527,671,1HR,0.08,2.26,0.34,0.23,0.22,0.17,0.3,0.22,0.3,0.3,0.35,0.21,0.24,0.28,0.26,0.176996959
090229,Calgary,AB,4700 110 Avenue Se,50.955122,-113.969742,1032,1HR,0.01,2.52,0.34,0.25,0.23,0.18,0.22,0.21,0.25,0.25,0.24,0.21,0.26,0.32,0.25,0.146473937
090230,Calgary,AB,2425 9th Ave Se,51.0309,-114.0091,1038,1HR,0.01,2.76,0.47,0.3,0.27,0.19,0.31,0.23,0.26,0.27,0.29,0.25,0.32,0.39,0.3,0.215156887
090235,Calgary,AB,3303 - 33 Street Nw,51.082655,-114.138827,1100,1HR,0,2.72,0.28,0.24,0.22,0.17,0.28,0.21,0.24,0.25,0.24,0.2,0.23,0.27,0.24,0.144999832
090250,Airdrie,AB,Chinook Winds Park,51.268078,-114.037794,1090,1HR,0,2.74,0.22,0.2,0.2,0.18,0.34,0.28,0.34,0.34,0.31,0.23,0.21,0.23,0.26,0.145181177
090302,Red Deer,AB,73 Street & Riverside Drive,52.29867,-113.79352,858,1HR,0,2,0.31,0.22,0.2,0.15,0.27,0.2,0.24,0.24,0.27,0.18,0.24,0.28,0.23,0.140325001
090304,Red Deer,AB,11 Lancaster Drive,52.24095,-113.765439,907,1HR,0,1.9,0.25,0.19,0.18,0.17,0.32,0.25,0.28,0.29,0.27,0.19,0.21,0.22,0.24,0.135705634
090402,Medicine Hat,AB,12th St Nw & Division Ave.,50.04893,-110.68116,709,1HR,0,1.1,0.15,0.13,0.1,0.12,0.18,0.16,0.21,0.21,0.21,0.15,0.14,0.14,0.16,0.09930167
090502,Lethbridge,AB,28 Street & 12 Avenue N.,49.71621,-112.8006,918,1HR,0,1.3,0.17,0.16,0.2,0.16,0.21,0.2,0.21,0.24,0.23,0.19,0.2,0.2,0.2,0.096151921
090601,Fort Saskatchewan,AB,9209a-96 Ave,53.69874,-113.22285,628,1HR,0,2.53,0.29,0.21,0.2,0.14,0.27,0.22,0.28,0.25,0.29,0.18,0.2,0.28,0.24,0.164479781
090701,Fort Mcmurray,AB,Macdonald Dr.,56.73341,-111.39047,260,1HR,0.1,3.6,0.2,0.17,0.17,0.12,0.3,0.25,0.34,0.4,0.38,0.19,0.18,0.2,0.24,0.228450563
090801,Fort Mckay,AB,Main Street,57.18941,-111.6405,268,1HR,0.1,3.4,0.22,0.21,0.2,0.22,0.42,0.46,0.53,0.58,0.58,0.28,0.25,0.25,0.35,0.258170359
090808,Conklin,AB,1-33-076-08 W4,55.621408,-111.17269,673,1HR,0.1,3.3,0.16,0.14,0.15,0.14,0.36,0.28,0.35,0.38,0.36,0.17,0.16,0.18,0.24,0.213667133
091701,Steeper,AB,Ne 12 48 22 W5,53.1325,-117.09111,1400,1HR,0.07,6.71,0.13,0.13,0.13,0.13,0.4,0.26,0.3,0.29,0.22,0.12,0.13,0.12,0.2,0.226570074
091801,Fort Chipewyan,AB,Fort Chipewyan,58.70879,-111.17683,238,1HR,0,5.6,0.02,0.02,0.02,0.02,0.14,0.16,0.19,0.41,0.36,0.07,0.03,0.03,0.12,0.320094317
092001,Grande Prairie,AB,10327 - 107 Avenue,55.1766,-118.8078,658,1HR,0.09,7.34,0.37,0.24,0.23,0.19,0.5,0.26,0.32,0.29,0.38,0.22,0.26,0.36,0.3,0.270510307
100111,Metro Vancouver - Port Moody,BC,Moody Street & Esplanade Avenue,49.280893,-122.849291,6,1HR,0.05,1.88,0.2,0.17,0.19,0.16,0.19,0.17,0.19,0.28,0.23,0.22,0.25,0.22,0.21,0.103943333
100112,Metro Vancouver - Vancouver,BC,Robson/Hornby,49.282272,-123.12188,32,1HR,0.07,2.59,,,,0.22,0.21,0.21,0.19,0.27,0.27,0.3,0.31,0.29,,
100119,Metro Vancouver - Burnaby,BC,5455 Rumble Street,49.21519,-122.985666,122,1HR,0.07,0.73,0.2,0.19,0.18,0.17,0.17,0.14,0.14,0.21,0.21,0.21,0.25,0.23,0.19,0.068319506
100127,Metro Vancouver - Surrey,BC,72nd Ave. And 190 St.,49.132928,-122.694224,79,1HR,0.08,1.03,0.19,0.18,0.18,0.16,0.15,0.13,0.13,0.19,0.2,0.22,0.25,0.21,0.18,0.075443101
100128,Metro Vancouver - Richmond,BC,10371 Aragon Rd,49.141437,-123.108215,4,1HR,0.06,0.86,0.19,0.17,0.18,0.14,0.13,0.1,0.1,0.15,0.17,0.21,0.25,0.2,0.17,0.091557666
100132,Metro Vancouver - North Vancouver,BC,16th St. & Jones Ave,49.323994,-123.083496,71,1HR,0.09,0.77,0.2,0.19,0.2,0.17,0.17,0.16,0.16,0.23,0.22,0.24,0.27,0.24,0.2,0.080580371
100134,Metro Vancouver - Richmond,BC,3153 Templeton Street,49.186265,-123.152422,1,1HR,0.08,1.19,0.23,0.21,0.21,0.17,0.16,0.13,0.14,0.21,0.22,0.27,0.28,0.26,0.21,0.105222768
100140,Metro Vancouver - Delta,BC,411 Milsom Wynd,49.009877,-123.081997,52,1HR,0.06,1.06,0.16,0.15,0.15,0.15,0.13,0.11,0.1,0.15,0.15,0.16,0.18,0.17,0.15,0.049444187
100141,Metro Vancouver - Vancouver,BC,1290 East 11th Ave.,49.260267,-123.077776,30,1HR,0.09,1.92,0.37,0.33,0.32,0.24,0.22,0.22,0.21,0.31,0.34,0.44,0.51,0.38,0.33,0.202082727
100304,Victoria,BC,"Sj Willis School, 923 Topaz Ave.",48.441942,-123.363165,29,1HR,0,1.06,0.14,0.11,0.06,0.04,0.08,0.1,0.11,0.18,0.19,0.21,0.22,0.19,0.14,0.1080563
100703,Kelowna,BC,1450 Klo Road,49.862119,-119.467461,350,1HR,0.06,2.82,0.24,0.18,0.18,0.14,0.15,0.16,0.17,0.45,0.24,0.22,0.26,0.23,0.22,0.177069001
101005,Abbotsford,BC,1073 Columbia Street,49.021554,-122.326523,65,1HR,0.06,1.51,0.14,0.13,0.13,0.14,0.16,0.16,0.15,0.22,0.21,0.21,0.22,0.2,0.17,0.076254366
101101,Metro Vancouver - Chilliwack,BC,46360 Airport Road,49.155848,-121.940279,12,1HR,0.09,2.34,0.19,0.17,0.18,0.17,0.17,0.16,0.16,0.28,0.22,0.2,0.22,0.19,0.19,0.097136926
101501,Metro Vancouver - Maple Ridge,BC,23124 118th Avenue,49.214939,-122.582057,50,1HR,0.06,1.32,0.18,0.16,0.16,0.14,0.13,0.12,0.11,0.18,0.17,0.2,0.24,0.2,0.17,0.081095095
129003,Yellowknife,NT,"52nd Ave. & 49th Street, Sir John Franklin High School",62.45207,-114.364,193,1HR,0,10.4,0.19,0.17,0.29,0.35,0.14,0.39,0.66,1.77,2.1,0.59,0.61,0.34,0.63,0.830191725
129601,Fort Smith,NT,95 Conibear Crescent,60.00455,-111.893241,358,1HR,0.26,31.03,0.64,0.56,0.57,0.56,0.67,0.69,1.6,2.78,1.59,0.57,0.58,0.35,0.94,1.318963257
